[{
  "_id": {
    "$oid": "64c08d4b96c159958ed56184"
  },
  "": 0,
  "Case Number": "2018.06.25",
  "Date": "25-Jun-18",
  "Year": 2018,
  "Country": "USA",
  "Type": "Boating",
  "Location": "Oceanside, San Diego County",
  "Activity": "Paddling",
  "Injury": "No injury to occupant, outrigger canoe and paddle damaged",
  "Fatal": "N",
  "Link": "http://sharkattackfile.net/spreadsheets/pdf_directory/2018.06.25-Wolfe.pdf",
  "Lat": 33.1959,
  "Lng": -117.3795
},
{
  "_id": {
    "$oid": "64c08d4b96c159958ed56185"
  },
  "": 1,
  "Case Number": "2018.05.26.b",
  "Date": "26-May-18",
  "Year": 2018,
  "Country": "USA",
  "Type": "Unprovoked",
  "Location": "Cocoa Beach, Brevard  County",
  "Activity": "Walking",
  "Injury": "Lower left leg bitten",
  "Fatal": "N",
  "Link": "http://sharkattackfile.net/spreadsheets/pdf_directory/2018.05.26.b-High.pdf",
  "Lat": 28.32,
  "Lng": -80.6076
},
{
  "_id": {
    "$oid": "64c08d4b96c159958ed56186"
  },
  "": 2,
  "Case Number": "2018.05.26.a",
  "Date": "26-May-18",
  "Year": 2018,
  "Country": "USA",
  "Type": "Unprovoked",
  "Location": "Daytona Beach, Volusia County",
  "Activity": "Standing",
  "Injury": "Minor injury to foot",
  "Fatal": "N",
  "Link": "http://sharkattackfile.net/spreadsheets/pdf_directory/2018.05.26.a-DaytonaBeach.pdf",
  "Lat": 29.2108,
  "Lng": -81.0228
},
{
  "_id": {
    "$oid": "64c08d4b96c159958ed56187"
  },
  "": 3,
  "Case Number": "2018.05.21",
  "Date": "21-May-18",
  "Year": 2018,
  "Country": "USA",
  "Type": "Unprovoked",
  "Location": "Isle of Palms,  Charleston County",
  "Activity": "Boogie boarding",
  "Injury": "Injuries to lower right leg and foot",
  "Fatal": "N",
  "Link": "http://sharkattackfile.net/spreadsheets/pdf_directory/2018.05.21-deBoer.pdf",
  "Lat": 32.7868,
  "Lng": -79.7948
},
{
  "_id": {
    "$oid": "64c08d4b96c159958ed56188"
  },
  "": 4,
  "Case Number": "2018.05.13.b",
  "Date": "13-May-18",
  "Year": 2018,
  "Country": "USA",
  "Type": "Unprovoked",
  "Location": "Hilton Head Island, Beaufort County",
  "Activity": "Swimming",
  "Injury": "Severe bite to right forearm",
  "Fatal": "N",
  "Link": "http://sharkattackfile.net/spreadsheets/pdf_directory/2018.05.13.b-Turrell.pdf",
  "Lat": 32.2163,
  "Lng": -80.7526
},
{
  "_id": {
    "$oid": "64c08d4b96c159958ed56189"
  },
  "": 5,
  "Case Number": "2017.11.18",
  "Date": "18-Nov-17",
  "Year": 2017,
  "Country": "USA",
  "Type": "Unprovoked",
  "Location": "Floridana Beach, Brevard County",
  "Activity": "Surfing",
  "Injury": "Heel bitten",
  "Fatal": "N",
  "Link": "http://sharkattackfile.net/spreadsheets/pdf_directory/2017.11.18-Anderson.pdf",
  "Lat": 27.9464,
  "Lng": -80.4956
},
{
  "_id": {
    "$oid": "64c08d4b96c159958ed5618a"
  },
  "": 6,
  "Case Number": "2017.10.23.b",
  "Date": "23-Oct-17",
  "Year": 2017,
  "Country": "USA",
  "Type": "Unprovoked",
  "Location": "Juno Beach, Palm Beach County",
  "Activity": "Surfing ",
  "Injury": "Lacerations to left foot",
  "Fatal": "N",
  "Link": "http://sharkattackfile.net/spreadsheets/pdf_directory/2017.10.23.b-Hartl.pdf",
  "Lat": 26.8798,
  "Lng": -80.0534
},
{
  "_id": {
    "$oid": "64c08d4b96c159958ed5618b"
  },
  "": 7,
  "Case Number": "2017.09.25.b",
  "Date": "25-Sep-17",
  "Year": 2017,
  "Country": "USA",
  "Type": "Unprovoked",
  "Location": "Hanna Park, Jacksonville, Duval County",
  "Activity": "Surfing",
  "Injury": "Lacerations to lower left leg and foot",
  "Fatal": "N",
  "Link": "http://sharkattackfile.net/spreadsheets/pdf_directory/2017.09.25.b-White.pdf",
  "Lat": 32.5568,
  "Lng": -93.8016
},
{
  "_id": {
    "$oid": "64c08d4b96c159958ed5618c"
  },
  "": 8,
  "Case Number": "2017.09.24.b",
  "Date": "24-Sep-17",
  "Year": 2017,
  "Country": "USA",
  "Type": "Invalid",
  "Location": "Rockaway",
  "Activity": "Surfing",
  "Injury": "Lacerations to right ankle, foot & toe",
  "Link": "http://sharkattackfile.net/spreadsheets/pdf_directory/2017.09.24.b-Behrend.pdf",
  "Lat": 40.9012,
  "Lng": -74.5143
},
{
  "_id": {
    "$oid": "64c08d4b96c159958ed5618d"
  },
  "": 9,
  "Case Number": "2017.09.24.a",
  "Date": "24-Sep-17",
  "Year": 2017,
  "Country": "USA",
  "Type": "Unprovoked",
  "Location": "Fort Worth",
  "Activity": "Surfing",
  "Injury": "Laceration to upper arm",
  "Fatal": "N",
  "Link": "http://sharkattackfile.net/spreadsheets/pdf_directory/2017.09.24.a-FortWorth.pdf",
  "Lat": 32.7254,
  "Lng": -97.3208
},
{
  "_id": {
    "$oid": "64c08d4b96c159958ed5618e"
  },
  "": 10,
  "Case Number": "2017.09.20",
  "Date": "20-Sep-17",
  "Year": 2017,
  "Country": "USA",
  "Type": "Unprovoked",
  "Location": "Palm Beach County",
  "Activity": "Surfing",
  "Injury": "Minor lacerations to sole of left foot",
  "Fatal": "N",
  "Link": "http://sharkattackfile.net/spreadsheets/pdf_directory/2017.09.20-Inniss.pdf",
  "Lat": 26.6503,
  "Lng": -80.4498
},
{
  "_id": {
    "$oid": "64c08d4b96c159958ed5618f"
  },
  "": 11,
  "Case Number": "2017.09.16.a",
  "Date": "16-Sep-17",
  "Year": 2017,
  "Country": "USA",
  "Type": "Unprovoked",
  "Location": "Ponce Inlet, Volusia County",
  "Activity": "Surfing",
  "Injury": "Lacerations to left foot",
  "Fatal": "N",
  "Link": "http://sharkattackfile.net/spreadsheets/pdf_directory/2017.09.16.a-Volusia.pdf",
  "Lat": 29.0964,
  "Lng": -80.937
},
{
  "_id": {
    "$oid": "64c08d4b96c159958ed56190"
  },
  "": 12,
  "Case Number": "2017.09.13",
  "Date": "13-Sep-17",
  "Year": 2017,
  "Country": "USA",
  "Type": "Unprovoked",
  "Location": "Ponce Inlet, Volusia County",
  "Activity": "Surfing",
  "Injury": "Lacerations to left foot",
  "Fatal": "N",
  "Link": "http://sharkattackfile.net/spreadsheets/pdf_directory/2017.09.13-Loyd.pdf",
  "Lat": 29.0964,
  "Lng": -80.937
},
{
  "_id": {
    "$oid": "64c08d4b96c159958ed56191"
  },
  "": 13,
  "Case Number": "2017.09.02.c",
  "Date": "2-Sep-17",
  "Year": 2017,
  "Country": "USA",
  "Type": "Unprovoked",
  "Location": "Marathon, Monroe County",
  "Activity": "Swimming",
  "Injury": "Lacerations to abdomen",
  "Fatal": "N",
  "Link": "http://sharkattackfile.net/spreadsheets/pdf_directory/2017.09.02.c-Maccarty.pdf",
  "Lat": 44.9,
  "Lng": -89.7668
},
{
  "_id": {
    "$oid": "64c08d4b96c159958ed56192"
  },
  "": 14,
  "Case Number": "2017.09.02.b",
  "Date": "2-Sep-17",
  "Year": 2017,
  "Country": "USA",
  "Type": "Unprovoked",
  "Location": "South Padre Island, Cameron County",
  "Activity": "Swimming",
  "Injury": "Lacerations to foot",
  "Fatal": "N",
  "Link": "http://sharkattackfile.net/spreadsheets/pdf_directory/2017.09.02.b-SouthPadre.pdf",
  "Lat": 26.1037,
  "Lng": -97.1647
},
{
  "_id": {
    "$oid": "64c08d4b96c159958ed56193"
  },
  "": 15,
  "Case Number": "2017.09.02.a",
  "Date": "2-Sep-17",
  "Year": 2017,
  "Country": "USA",
  "Type": "Unprovoked",
  "Location": "New Smyrna Beach, Volusia County",
  "Activity": "Surfing",
  "Injury": "Minor injury to right hand",
  "Fatal": "N",
  "Link": "http://sharkattackfile.net/spreadsheets/pdf_directory/2017.09.02.a-Elmore.pdf",
  "Lat": 29.0258,
  "Lng": -80.927
},
{
  "_id": {
    "$oid": "64c08d4b96c159958ed56194"
  },
  "": 16,
  "Case Number": "2017.07.29.c",
  "Date": "29-Jul-17",
  "Year": 2017,
  "Country": "USA",
  "Type": "Invalid",
  "Location": "Hilton Head Island, Beaufort County",
  "Activity": "Swimming",
  "Injury": "Abrasions and cuts to sole of foot",
  "Link": "http://sharkattackfile.net/spreadsheets/pdf_directory/2017.07.29.c-Simatacolos.pdf",
  "Lat": 32.2163,
  "Lng": -80.7526
},
{
  "_id": {
    "$oid": "64c08d4b96c159958ed56195"
  },
  "": 17,
  "Case Number": "2017.07.23.b",
  "Date": "23-Jul-17",
  "Year": 2017,
  "Country": "USA",
  "Type": "Unprovoked",
  "Location": "Ventnor",
  "Injury": "Minor injury to hand",
  "Fatal": "N",
  "Link": "http://sharkattackfile.net/spreadsheets/pdf_directory/2017.07.23.b-Smith.pdf",
  "Lat": 50.5948,
  "Lng": -1.2037
},
{
  "_id": {
    "$oid": "64c08d4b96c159958ed56196"
  },
  "": 18,
  "Case Number": "2017.07.20.c",
  "Date": "20-Jul-17",
  "Year": 2017,
  "Country": "USA",
  "Type": "Invalid",
  "Location": "Hilton Head Island, Beaufort County",
  "Activity": "Swimming",
  "Injury": "Foot injured",
  "Link": "http://sharkattackfile.net/spreadsheets/pdf_directory/2017.07.20.c-Rogier.pdf",
  "Lat": 32.2163,
  "Lng": -80.7526
},
{
  "_id": {
    "$oid": "64c08d4b96c159958ed56197"
  },
  "": 19,
  "Case Number": "2017.07.14.b",
  "Date": "14-Jul-17",
  "Year": 2017,
  "Country": "USA",
  "Type": "Unprovoked",
  "Location": "South Beach, Westport, Grays Harbor County",
  "Activity": "Surfing",
  "Injury": "Pulled off board by shark but no injury",
  "Fatal": "N",
  "Link": "http://sharkattackfile.net/spreadsheets/pdf_directory/2017.07.14.b-Washington.pdf",
  "Lat": -42.4943,
  "Lng": 171.1742
},
{
  "_id": {
    "$oid": "64c08d4b96c159958ed56198"
  },
  "": 20,
  "Case Number": "2017.07.11",
  "Date": "11-Jul-17",
  "Year": 2017,
  "Country": "USA",
  "Type": "Boating",
  "Location": "Santa Cruz, Santa Cruz County",
  "Activity": "Kayaking",
  "Injury": "No injury, kayak bitten",
  "Fatal": "N",
  "Link": "http://sharkattackfile.net/spreadsheets/pdf_directory/2017.07.11-Lawson.pdf",
  "Lat": -17.8,
  "Lng": -63.1667
},
{
  "_id": {
    "$oid": "64c08d4b96c159958ed56199"
  },
  "": 21,
  "Case Number": "2017.06.29",
  "Date": "29-Jun-17",
  "Year": 2017,
  "Country": "USA",
  "Type": "Invalid",
  "Location": "Wrightsville Beach",
  "Activity": "Fishing",
  "Injury": "Arm injured by hook, not by a shark",
  "Link": "http://sharkattackfile.net/spreadsheets/pdf_directory/2017.06.29-Wrightsville.pdf",
  "Lat": 34.2085,
  "Lng": -77.7964
},
{
  "_id": {
    "$oid": "64c08d4b96c159958ed5619a"
  },
  "": 22,
  "Case Number": "2017.06.10.a",
  "Date": "10-Jun-17",
  "Year": 2017,
  "Country": "USA",
  "Type": "Unprovoked",
  "Location": "Ponce Inlet, Volusia County",
  "Activity": "Surfing",
  "Injury": "Laceration to left foot",
  "Fatal": "N",
  "Link": "http://sharkattackfile.net/spreadsheets/pdf_directory/2017.06.10.a-Brock.pdf",
  "Lat": 29.0964,
  "Lng": -80.937
},
{
  "_id": {
    "$oid": "64c08d4b96c159958ed5619b"
  },
  "": 23,
  "Case Number": "2017.05.30",
  "Date": "30-May-17",
  "Year": 2017,
  "Country": "USA",
  "Type": "Provoked",
  "Location": "Awendaw, Charleston County",
  "Activity": "Touching a shark",
  "Injury": "Right hand bitten by hooked shark PROVOKED INCIDENT",
  "Fatal": "N",
  "Link": "http://sharkattackfile.net/spreadsheets/pdf_directory/2017.05.30-Higgins.pdf",
  "Lat": 33.0377,
  "Lng": -79.6131
},
{
  "_id": {
    "$oid": "64c08d4b96c159958ed5619c"
  },
  "": 24,
  "Case Number": "2017.05.06",
  "Date": "5-May-17",
  "Year": 2017,
  "Country": "MEXICO",
  "Type": "Unprovoked",
  "Location": "Los Arbolitos, Cabo Pulmo",
  "Activity": "Snorkeling",
  "Injury": "FATAL",
  "Fatal": "Y",
  "Link": "http://sharkattackfile.net/spreadsheets/pdf_directory/2017.05.06-Rozada.pdf",
  "Lat": -28.6685,
  "Lng": -65.7517
},
{
  "_id": {
    "$oid": "64c08d4b96c159958ed5619d"
  },
  "": 25,
  "Case Number": "2017.05.03",
  "Date": "3-May-17",
  "Year": 2017,
  "Country": "USA",
  "Type": "Invalid",
  "Location": "Sunset Beach, Orange County",
  "Activity": "Surfing",
  "Injury": "Laceration to thigh, likely caused by surfboard fin",
  "Link": "http://sharkattackfile.net/spreadsheets/pdf_directory/2017.05.03-Raab.pdf",
  "Lat": 33.8807,
  "Lng": -78.5122
},
{
  "_id": {
    "$oid": "64c08d4b96c159958ed5619e"
  },
  "": 26,
  "Case Number": "2017.04.29.d",
  "Date": "29-Apr-17",
  "Year": 2017,
  "Country": "USA",
  "Type": "Unprovoked",
  "Location": "San Onofre, San Diego County ",
  "Activity": "Swimming",
  "Injury": "Major injury to posterior thigh",
  "Fatal": "N",
  "Link": "http://sharkattackfile.net/spreadsheets/pdf_directory/2017.04.29.d-Ericson.pdf",
  "Lat": 9.7359,
  "Lng": -75.5263
},
{
  "_id": {
    "$oid": "64c08d4b96c159958ed5619f"
  },
  "": 27,
  "Case Number": "2017.04.29.b",
  "Date": "29-Apr-17",
  "Year": 2017,
  "Country": "USA",
  "Type": "Unprovoked",
  "Location": "Folly Beach, Charleston County",
  "Activity": "Surfing",
  "Injury": "Left foot bitten",
  "Fatal": "N",
  "Link": "http://sharkattackfile.net/spreadsheets/pdf_directory/2017.04.29.b-Dyar.pdf",
  "Lat": 32.6552,
  "Lng": -79.9404
},
{
  "_id": {
    "$oid": "64c08d4b96c159958ed561a0"
  },
  "": 28,
  "Case Number": "2017.04.26",
  "Date": "26-Apr-17",
  "Year": 2017,
  "Country": "USA",
  "Type": "Invalid",
  "Activity": "Photo shoot",
  "Injury": "Alleged laceration to left ankle",
  "Link": "http://sharkattackfile.net/spreadsheets/pdf_directory/2017.05.26-Cavelli.pdf",
  "Lat": 18.8333,
  "Lng": 100.6667
},
{
  "_id": {
    "$oid": "64c08d4b96c159958ed561a1"
  },
  "": 29,
  "Case Number": "2017.04.20",
  "Date": "20-Apr-17",
  "Year": 2017,
  "Country": "USA",
  "Type": "Invalid",
  "Location": "Georgetown County",
  "Activity": "Swimming",
  "Injury": "Laceration & puncture wounds to left foot",
  "Link": "http://sharkattackfile.net/spreadsheets/pdf_directory/2017.04.20-PawleysIsland.pdf",
  "Lat": 33.4502,
  "Lng": -79.3498
},
{
  "_id": {
    "$oid": "64c08d4b96c159958ed561a2"
  },
  "": 30,
  "Case Number": "2017.04.17.b",
  "Date": "17-Apr-17",
  "Year": 2017,
  "Country": "USA",
  "Type": "Unprovoked",
  "Location": "Daytona Beach, Volusia County",
  "Injury": "Minor bite to the foot",
  "Fatal": "N",
  "Link": "http://sharkattackfile.net/spreadsheets/pdf_directory/2017.04.17.b-Volusia.pdf",
  "Lat": 29.2108,
  "Lng": -81.0228
},
{
  "_id": {
    "$oid": "64c08d4b96c159958ed561a3"
  },
  "": 31,
  "Case Number": "2017.04.13",
  "Date": "13-Apr-17",
  "Year": 2017,
  "Country": "USA",
  "Type": "Unprovoked",
  "Location": "Hanna Park, Jacksonville, Duval County",
  "Activity": "Surfing",
  "Injury": "Lacerations to right foot",
  "Fatal": "N",
  "Link": "http://sharkattackfile.net/spreadsheets/pdf_directory/2017.04.13-Perry.pdf",
  "Lat": 32.5568,
  "Lng": -93.8016
},
{
  "_id": {
    "$oid": "64c08d4b96c159958ed561a4"
  },
  "": 32,
  "Case Number": "2017.04.12.b",
  "Date": "12-Apr-17",
  "Year": 2017,
  "Country": "USA",
  "Type": "Unprovoked",
  "Location": "St. Augustine",
  "Activity": "Surfing",
  "Injury": "Lacerations to right foot",
  "Fatal": "N",
  "Link": "http://sharkattackfile.net/spreadsheets/pdf_directory/2017.04.12.b-Keyton.pdf",
  "Lat": 29.8947,
  "Lng": -81.3145
},
{
  "_id": {
    "$oid": "64c08d4b96c159958ed561a5"
  },
  "": 33,
  "Case Number": "2017.04.11",
  "Date": "11-Apr-17",
  "Year": 2017,
  "Country": "USA",
  "Type": "Unprovoked",
  "Location": "Ormond Beach, Volusia County",
  "Activity": "Surfing",
  "Injury": "Calf bitten",
  "Fatal": "N",
  "Link": "http://sharkattackfile.net/spreadsheets/pdf_directory/2017.04.11-Oosterveld.pdf ",
  "Lat": 29.2858,
  "Lng": -81.0559
},
{
  "_id": {
    "$oid": "64c08d4b96c159958ed561a6"
  },
  "": 34,
  "Case Number": "2017.04.10.b",
  "Date": "10-Apr-17",
  "Year": 2017,
  "Country": "USA",
  "Type": "Unprovoked",
  "Location": "Melbourne Beach, Brevard County",
  "Activity": "Paddle boarding",
  "Injury": "Laceration to calf",
  "Fatal": "N",
  "Link": "http://sharkattackfile.net/spreadsheets/pdf_directory/2017.04.10.b-Melbourne.pdf",
  "Lat": 28.0684,
  "Lng": -80.5603
},
{
  "_id": {
    "$oid": "64c08d4b96c159958ed561a7"
  },
  "": 35,
  "Case Number": "2017.04.10.a",
  "Date": "10-Apr-17",
  "Year": 2017,
  "Country": "USA",
  "Type": "Unprovoked",
  "Location": "Melbourne Beach, Brevard County",
  "Activity": "Swimming",
  "Injury": "Minor injury to left hand",
  "Fatal": "N",
  "Link": "http://sharkattackfile.net/spreadsheets/pdf_directory/2017.04.10.a-Orr.pdf",
  "Lat": 28.0684,
  "Lng": -80.5603
},
{
  "_id": {
    "$oid": "64c08d4b96c159958ed561a8"
  },
  "": 36,
  "Case Number": "2017.04.05",
  "Date": "5-Apr-17",
  "Year": 2017,
  "Country": "USA",
  "Type": "Unprovoked",
  "Location": "New Smyrna Beach, Volusia County",
  "Activity": "Swimming",
  "Injury": "Thigh nipped, minor injury",
  "Fatal": "N",
  "Link": "http://sharkattackfile.net/spreadsheets/pdf_directory/2017.04.05-NSB.pdf",
  "Lat": 29.0258,
  "Lng": -80.927
},
{
  "_id": {
    "$oid": "64c08d4b96c159958ed561a9"
  },
  "": 37,
  "Case Number": "2017.04.02.a",
  "Date": "2-Apr-17",
  "Year": 2017,
  "Country": "USA",
  "Type": "Unprovoked",
  "Location": "Destin, Okaloosa County",
  "Activity": "Swimming",
  "Injury": "Lacerations to thighs",
  "Fatal": "N",
  "Link": "http://sharkattackfile.net/spreadsheets/pdf_directory/2017.04.02.a-Taylor.pdf",
  "Lat": 30.3935,
  "Lng": -86.4958
},
{
  "_id": {
    "$oid": "64c08d4b96c159958ed561aa"
  },
  "": 38,
  "Case Number": "2017.03.27",
  "Date": "27-Mar-17",
  "Year": 2017,
  "Country": "USA",
  "Type": "Unprovoked",
  "Location": "New Smyrna Beach, Volusia County",
  "Activity": "Surfing",
  "Injury": "Minor injury to left foot",
  "Fatal": "N",
  "Link": "http://sharkattackfile.net/spreadsheets/pdf_directory/2017.03.27-NSB.pdf",
  "Lat": 29.0258,
  "Lng": -80.927
},
{
  "_id": {
    "$oid": "64c08d4b96c159958ed561ab"
  },
  "": 39,
  "Case Number": "2017.02.11",
  "Date": "11-Feb-17",
  "Year": 2017,
  "Country": "USA",
  "Type": "Unprovoked",
  "Location": "Melbourne Beach, Brevard County",
  "Activity": "Swimming",
  "Injury": "Injury to hand",
  "Fatal": "N",
  "Link": "http://sharkattackfile.net/spreadsheets/pdf_directory/2017.02.11-MelbourneBeach.pdf",
  "Lat": 28.0684,
  "Lng": -80.5603
},
{
  "_id": {
    "$oid": "64c08d4b96c159958ed561ac"
  },
  "": 40,
  "Case Number": "2017.01.22",
  "Date": "22-Jan-17",
  "Year": 2017,
  "Country": "USA",
  "Type": "Unprovoked",
  "Location": "Vero Beach, Indian River County",
  "Injury": "Puncture wounds to lower arm or hand",
  "Fatal": "N",
  "Link": "http://sharkattackfile.net/spreadsheets/pdf_directory/2017.01.22-VeroBeach.pdf",
  "Lat": 27.6386,
  "Lng": -80.3973
},
{
  "_id": {
    "$oid": "64c08d4b96c159958ed561ad"
  },
  "": 41,
  "Case Number": "2017.01.13.a",
  "Date": "13-Jan-17",
  "Year": 2017,
  "Country": "USA",
  "Type": "Unprovoked",
  "Location": "Jensen Beach",
  "Injury": "Minor injury to hand",
  "Fatal": "N",
  "Link": "http://sharkattackfile.net/spreadsheets/pdf_directory/2017.01.13.a-JensenBeach.pdf",
  "Lat": 27.2545,
  "Lng": -80.2298
},
{
  "_id": {
    "$oid": "64c08d4b96c159958ed561ae"
  },
  "": 42,
  "Case Number": "2016.12.11.a",
  "Date": "11-Dec-16",
  "Year": 2016,
  "Country": "USA",
  "Type": "Invalid",
  "Location": "New Smyrna Beach, Volusia County",
  "Activity": "Surfing",
  "Injury": "Cuts to right ankle & foot",
  "Link": "http://sharkattackfile.net/spreadsheets/pdf_directory/2016.12.11.a-Garthwait.pdf",
  "Lat": 29.0258,
  "Lng": -80.927
},
{
  "_id": {
    "$oid": "64c08d4b96c159958ed561af"
  },
  "": 43,
  "Case Number": "2016.10.10",
  "Date": "10-Oct-16",
  "Year": 2016,
  "Country": "USA",
  "Type": "Unprovoked",
  "Location": "Indian Beach, Ecola State Park, Clatsop County",
  "Activity": "Surfing",
  "Injury": "Wounds to upper thigh and lower leg",
  "Fatal": "N",
  "Link": "http://sharkattackfile.net/spreadsheets/pdf_directory/2016.10.10-Tanner.pdf",
  "Lat": 30.0191,
  "Lng": -90.1412
},
{
  "_id": {
    "$oid": "64c08d4b96c159958ed561b0"
  },
  "": 44,
  "Case Number": "2016.10.02",
  "Date": "2-Oct-16",
  "Year": 2016,
  "Country": "USA",
  "Type": "Unprovoked",
  "Location": "New Smyrna Beach, Volusia County",
  "Activity": "Surfing",
  "Injury": "Cuts to dorsal surface of left foot",
  "Fatal": "N",
  "Link": "http://sharkattackfile.net/spreadsheets/pdf_directory/2016.10.02-NSB.pdf",
  "Lat": 29.0258,
  "Lng": -80.927
},
{
  "_id": {
    "$oid": "64c08d4b96c159958ed561b1"
  },
  "": 45,
  "Case Number": "2016.10.01",
  "Date": "1-Oct-16",
  "Year": 2016,
  "Country": "USA",
  "Type": "Unprovoked",
  "Location": "New Smyrna Beach, Volusia County",
  "Activity": "Surfng",
  "Injury": "Minor injuries",
  "Fatal": "N",
  "Link": "http://sharkattackfile.net/spreadsheets/pdf_directory/2016.10.01-NSB.pdf",
  "Lat": 29.0258,
  "Lng": -80.927
},
{
  "_id": {
    "$oid": "64c08d4b96c159958ed561b2"
  },
  "": 46,
  "Case Number": "2016.09.18.c",
  "Date": "18-Sep-16",
  "Year": 2016,
  "Country": "USA",
  "Type": "Unprovoked",
  "Location": "New Smyrna Beach, Volusia County",
  "Activity": "Surfing",
  "Injury": "Minor injury to thigh",
  "Fatal": "N",
  "Link": "http://sharkattackfile.net/spreadsheets/pdf_directory/2016.09.18.c-NSB.pdf",
  "Lat": 29.0258,
  "Lng": -80.927
},
{
  "_id": {
    "$oid": "64c08d4b96c159958ed561b3"
  },
  "": 47,
  "Case Number": "2016.09.18.b",
  "Date": "18-Sep-16",
  "Year": 2016,
  "Country": "USA",
  "Type": "Unprovoked",
  "Location": "New Smyrna Beach, Volusia County",
  "Activity": "Surfing",
  "Injury": "Lacerations to hands",
  "Fatal": "N",
  "Link": "http://sharkattackfile.net/spreadsheets/pdf_directory/2016.09.18.b-Luciano.pdf",
  "Lat": 29.0258,
  "Lng": -80.927
},
{
  "_id": {
    "$oid": "64c08d4b96c159958ed561b4"
  },
  "": 48,
  "Case Number": "2016.09.18.a",
  "Date": "18-Sep-16",
  "Year": 2016,
  "Country": "USA",
  "Type": "Unprovoked",
  "Location": "New Smyrna Beach, Volusia County",
  "Activity": "Surfing",
  "Injury": "Lacerations to lower leg",
  "Fatal": "N",
  "Link": "http://sharkattackfile.net/spreadsheets/pdf_directory/2016.09.18.a-NSB.pdf",
  "Lat": 29.0258,
  "Lng": -80.927
},
{
  "_id": {
    "$oid": "64c08d4b96c159958ed561b5"
  },
  "": 49,
  "Case Number": "2016.09.11",
  "Date": "11-Sep-16",
  "Year": 2016,
  "Country": "USA",
  "Type": "Unprovoked",
  "Location": "Ponte Vedra, St. Johns County",
  "Activity": "Wading",
  "Injury": "Minor injury to arm",
  "Fatal": "N",
  "Link": "http://sharkattackfile.net/spreadsheets/pdf_directory/2016.09.11-PonteVedra.pdf",
  "Lat": 30.2275,
  "Lng": -81.3801
},
{
  "_id": {
    "$oid": "64c08d4b96c159958ed561b6"
  },
  "": 50,
  "Case Number": "2016.09.07",
  "Date": "7-Sep-16",
  "Year": 2016,
  "Country": "USA",
  "Type": "Unprovoked",
  "Location": "Makaha, Oahu",
  "Activity": "Swimming",
  "Injury": "Severe lacerations to shoulder & forearm",
  "Fatal": "N",
  "Link": "http://sharkattackfile.net/spreadsheets/pdf_directory/2016.09.07-Bagnol.pdf",
  "Lat": 21.4694,
  "Lng": -158.2175
},
{
  "_id": {
    "$oid": "64c08d4b96c159958ed561b7"
  },
  "": 51,
  "Case Number": "2016.09.04",
  "Date": "4-Sep-16",
  "Year": 2016,
  "Country": "USA",
  "Type": "Unprovoked",
  "Location": "New Smyrna Beach, Volusia County",
  "Activity": "Body boarding",
  "Injury": "Foot bitten",
  "Fatal": "N",
  "Link": "http://sharkattackfile.net/spreadsheets/pdf_directory/2016.09.04-Moore.pdf",
  "Lat": 29.0258,
  "Lng": -80.927
},
{
  "_id": {
    "$oid": "64c08d4b96c159958ed561b8"
  },
  "": 52,
  "Case Number": "2016.08.29.b",
  "Date": "29-Aug-16",
  "Year": 2016,
  "Country": "USA",
  "Type": "Unprovoked",
  "Location": "New Smyrna Beach, Volusia County",
  "Activity": "Surfing",
  "Injury": "Lacerations to right foot",
  "Fatal": "N",
  "Link": "http://sharkattackfile.net/spreadsheets/pdf_directory/2016.08.29.b-Cumiskey.pdf",
  "Lat": 29.0258,
  "Lng": -80.927
},
{
  "_id": {
    "$oid": "64c08d4b96c159958ed561b9"
  },
  "": 53,
  "Case Number": "2016.08.29.a",
  "Date": "29-Aug-16",
  "Year": 2016,
  "Country": "USA",
  "Type": "Unprovoked",
  "Location": "New Smyrna Beach, Volusia County",
  "Activity": "Surfing",
  "Injury": "Minor injury to ankle",
  "Fatal": "N",
  "Link": "http://sharkattackfile.net/spreadsheets/pdf_directory/2016.08.29.a-NSB.pdf",
  "Lat": 29.0258,
  "Lng": -80.927
},
{
  "_id": {
    "$oid": "64c08d4b96c159958ed561ba"
  },
  "": 54,
  "Case Number": "2016.08.25",
  "Date": "25-Aug-16",
  "Year": 2016,
  "Country": "USA",
  "Type": "Unprovoked",
  "Location": "Ponte Vedra, St. Johns County",
  "Activity": "Wading",
  "Injury": "Minor injury to ankle",
  "Fatal": "N",
  "Link": "http://sharkattackfile.net/spreadsheets/pdf_directory/2016.08.25-Cassetty.pdf",
  "Lat": 30.2275,
  "Lng": -81.3801
},
{
  "_id": {
    "$oid": "64c08d4b96c159958ed561bb"
  },
  "": 55,
  "Case Number": "2016.08.04",
  "Date": "4-Aug-16",
  "Year": 2016,
  "Country": "USA",
  "Type": "Unprovoked",
  "Location": "New Smyrna Beach, Volusia County",
  "Activity": "Surfing",
  "Injury": "Big toe bitten",
  "Fatal": "N",
  "Link": "http://sharkattackfile.net/spreadsheets/pdf_directory/2016.06.04-Tyler.pdf",
  "Lat": 29.0258,
  "Lng": -80.927
},
{
  "_id": {
    "$oid": "64c08d4b96c159958ed561bc"
  },
  "": 56,
  "Case Number": "2016.07.16.b",
  "Date": "16-Jul-16",
  "Year": 2016,
  "Country": "USA",
  "Type": "Unprovoked",
  "Location": "New Smyrna Beach, Volusia County",
  "Activity": "Surfing",
  "Injury": "Minor injury to leg",
  "Fatal": "N",
  "Link": "http://sharkattackfile.net/spreadsheets/pdf_directory/2016.07.16.b-NSB.pdf",
  "Lat": 29.0258,
  "Lng": -80.927
},
{
  "_id": {
    "$oid": "64c08d4b96c159958ed561bd"
  },
  "": 57,
  "Case Number": "2016.07.16.a",
  "Date": "16-Jul-16",
  "Year": 2016,
  "Country": "USA",
  "Type": "Unprovoked",
  "Location": "New Smyrna Beach, Volusia County",
  "Injury": "Minor injury to toes",
  "Fatal": "N",
  "Link": "http://sharkattackfile.net/spreadsheets/pdf_directory/2016.07.16.a-NSB.pdf",
  "Lat": 29.0258,
  "Lng": -80.927
},
{
  "_id": {
    "$oid": "64c08d4b96c159958ed561be"
  },
  "": 58,
  "Case Number": "2016.07.15.b",
  "Date": "15-Jul-16",
  "Year": 2016,
  "Country": "USA",
  "Type": "Unprovoked",
  "Location": "Surfside, Orange County",
  "Activity": "Kite surfing",
  "Injury": "No injury, board damaged",
  "Fatal": "N",
  "Link": "http://sharkattackfile.net/spreadsheets/pdf_directory/2016.07.15.b-Frees.pdf",
  "Lat": 25.8784,
  "Lng": -80.1256
},
{
  "_id": {
    "$oid": "64c08d4b96c159958ed561bf"
  },
  "": 59,
  "Case Number": "2016.07.15.a",
  "Date": "15-Jul-16",
  "Year": 2016,
  "Country": "USA",
  "Type": "Unprovoked",
  "Location": "North Myrtle Beach, Horry County",
  "Activity": "Swimming",
  "Injury": "Puncture wounds to foot",
  "Fatal": "N",
  "Link": "http://sharkattackfile.net/spreadsheets/pdf_directory/2016.07.15.a-MyrtleBeach.pdf",
  "Lat": 33.816,
  "Lng": -78.68
},
{
  "_id": {
    "$oid": "64c08d4b96c159958ed561c0"
  },
  "": 60,
  "Case Number": "2016.07.08",
  "Date": "8-Jul-16",
  "Year": 2016,
  "Country": "USA",
  "Type": "Boating",
  "Location": "Capitola, Santa Cruz County",
  "Activity": "Fishing for squid",
  "Injury": "No injury. Hull bitten, tooth fragment recovered",
  "Fatal": "N",
  "Link": "http://sharkattackfile.net/spreadsheets/pdf_directory/2016.07.08-CapitolaBoat.pdf",
  "Lat": 36.9752,
  "Lng": -121.9533
},
{
  "_id": {
    "$oid": "64c08d4b96c159958ed561c1"
  },
  "": 61,
  "Case Number": "2016.07.06",
  "Date": "6-Jul-16",
  "Year": 2016,
  "Country": "USA",
  "Type": "Unprovoked",
  "Location": "Melbourne Beach, Brevard County",
  "Activity": "Swimming",
  "Injury": "Buttocks, thigh, left hand & wrist injured",
  "Fatal": "N",
  "Link": "http://sharkattackfile.net/spreadsheets/pdf_directory/2016.07.06-Njwoman.pdf",
  "Lat": 28.0684,
  "Lng": -80.5603
},
{
  "_id": {
    "$oid": "64c08d4b96c159958ed561c2"
  },
  "": 62,
  "Case Number": "2016.06.27",
  "Date": "27-Jun-16",
  "Year": 2016,
  "Country": "USA",
  "Type": "Unprovoked",
  "Location": "Sullivan's Island",
  "Injury": "Minor injury",
  "Fatal": "N",
  "Link": "http://sharkattackfile.net/spreadsheets/pdf_directory/2016.06.27-Sullivans.pdf",
  "Lat": 32.7632,
  "Lng": -79.8367
},
{
  "_id": {
    "$oid": "64c08d4b96c159958ed561c3"
  },
  "": 63,
  "Case Number": "2016.06.25",
  "Date": "25-Jun-16",
  "Year": 2016,
  "Country": "USA",
  "Type": "Unprovoked",
  "Location": "Atlantic Beach, Emerald Isle, Carteret County",
  "Activity": "Surfing",
  "Injury": "Foot injured",
  "Fatal": "N",
  "Link": "http://sharkattackfile.net/spreadsheets/pdf_directory/2016.06.25-AtlanticBeach.pdf",
  "Lat": 30.3344,
  "Lng": -81.3987
},
{
  "_id": {
    "$oid": "64c08d4b96c159958ed561c4"
  },
  "": 64,
  "Case Number": "2016.06.21.b",
  "Date": "21-Jun-16",
  "Year": 2016,
  "Country": "USA",
  "Type": "Unprovoked",
  "Location": "North Myrtle Beach, Horry County",
  "Activity": "Floating",
  "Injury": "Lacerations and punctures to foot",
  "Fatal": "N",
  "Link": "http://sharkattackfile.net/spreadsheets/pdf_directory/2016.06.21.b-Schott.pdf",
  "Lat": 33.816,
  "Lng": -78.68
},
{
  "_id": {
    "$oid": "64c08d4b96c159958ed561c5"
  },
  "": 65,
  "Case Number": "2016.06.11",
  "Date": "11-Jun-16",
  "Year": 2016,
  "Country": "USA",
  "Type": "Unprovoked",
  "Location": "Atlantic Beach, Emerald Isle, Carteret County",
  "Activity": "Standing",
  "Injury": "Laceration to wrist",
  "Fatal": "N",
  "Link": "http://sharkattackfile.net/spreadsheets/pdf_directory/2016.06.11-Bowen.pdf",
  "Lat": 30.3344,
  "Lng": -81.3987
},
{
  "_id": {
    "$oid": "64c08d4b96c159958ed561c6"
  },
  "": 66,
  "Case Number": "2016.06.07",
  "Date": "7-Jun-16",
  "Year": 2016,
  "Country": "USA",
  "Type": "Invalid",
  "Location": "Folly Beach, Charleston County",
  "Activity": "Surfing",
  "Injury": "No injury, board damaged",
  "Link": "http://sharkattackfile.net/spreadsheets/pdf_directory/2016.06.07-Oneill.pdf",
  "Lat": 32.6552,
  "Lng": -79.9404
},
{
  "_id": {
    "$oid": "64c08d4b96c159958ed561c7"
  },
  "": 67,
  "Case Number": "2016.06.05.b",
  "Date": "5-Jun-16",
  "Year": 2016,
  "Country": "USA",
  "Type": "Unprovoked",
  "Location": "Flagler Beach, Flagler County",
  "Activity": "Swimming",
  "Injury": "Leg bitten",
  "Fatal": "N",
  "Link": "http://sharkattackfile.net/spreadsheets/pdf_directory/2016.06.05.b-Flagler.pdf",
  "Lat": 29.475,
  "Lng": -81.127
},
{
  "_id": {
    "$oid": "64c08d4b96c159958ed561c8"
  },
  "": 68,
  "Case Number": "2016.05.29.b",
  "Date": "29-May-16",
  "Year": 2016,
  "Country": "USA",
  "Type": "Unprovoked",
  "Location": "Corona Del Mar, Newport, Orange County",
  "Activity": "Swimming",
  "Injury": "Injuries to arm and shoulder",
  "Fatal": "N",
  "Link": "http://sharkattackfile.net/spreadsheets/pdf_directory/2016.05.29.b-Corona.pdf",
  "Lat": 33.5995,
  "Lng": -117.8725
},
{
  "_id": {
    "$oid": "64c08d4b96c159958ed561c9"
  },
  "": 69,
  "Case Number": "2016.05.29.a",
  "Date": "29-May-16",
  "Year": 2016,
  "Country": "USA",
  "Type": "Unprovoked",
  "Location": "Neptune, Duval County",
  "Activity": "Swimming",
  "Injury": "Injury to posterior right leg",
  "Fatal": "N",
  "Link": "http://sharkattackfile.net/spreadsheets/pdf_directory/2016.05.29.a-Neptune.pdf",
  "Lat": 40.224,
  "Lng": -74.0478
},
{
  "_id": {
    "$oid": "64c08d4b96c159958ed561ca"
  },
  "": 70,
  "Case Number": "2016.05.22",
  "Date": "22-May-16",
  "Year": 2016,
  "Country": "USA",
  "Type": "Unprovoked",
  "Location": "Vero Beach, Indian River County",
  "Activity": "Swimming",
  "Injury": "Puncture wounds to thigh",
  "Fatal": "N",
  "Link": "http://sharkattackfile.net/spreadsheets/pdf_directory/2016.05.22-Marcus.pdf",
  "Lat": 27.6386,
  "Lng": -80.3973
},
{
  "_id": {
    "$oid": "64c08d4b96c159958ed561cb"
  },
  "": 71,
  "Case Number": "2016.05.21.b",
  "Date": "21-May-16",
  "Year": 2016,
  "Country": "USA",
  "Type": "Unprovoked",
  "Location": "St. Petersburg, Pinellas County",
  "Activity": "Swimming",
  "Injury": "Lacerations and puncture wounds to foot and ankle",
  "Fatal": "N",
  "Link": "http://sharkattackfile.net/spreadsheets/pdf_directory/2016.05.21.b-Magee.pdf",
  "Lat": 59.8944,
  "Lng": 30.2642
},
{
  "_id": {
    "$oid": "64c08d4b96c159958ed561cc"
  },
  "": 72,
  "Case Number": "2016.05.18",
  "Date": "18-May-16",
  "Year": 2016,
  "Country": "USA",
  "Type": "Unprovoked",
  "Location": "Ponte Vedra, St. Johns County",
  "Activity": "Swimming",
  "Injury": "Ankle bitten",
  "Fatal": "N",
  "Link": "http://sharkattackfile.net/spreadsheets/pdf_directory/2016.05.18-Wilson.pdf",
  "Lat": 30.2275,
  "Lng": -81.3801
},
{
  "_id": {
    "$oid": "64c08d4b96c159958ed561cd"
  },
  "": 73,
  "Case Number": "2016.05.15",
  "Date": "15-May-16",
  "Year": 2016,
  "Country": "USA",
  "Type": "Provoked",
  "Location": "Boca Raton, Palm Beach County",
  "Activity": "Teasing a shark",
  "Injury": "Arm grabbed PROVOKED INCIDENT",
  "Fatal": "N",
  "Link": "http://sharkattackfile.net/spreadsheets/pdf_directory/2016.05.15-Boca.pdf",
  "Lat": 26.3587,
  "Lng": -80.0831
},
{
  "_id": {
    "$oid": "64c08d4b96c159958ed561ce"
  },
  "": 74,
  "Case Number": "2016.04.23",
  "Date": "23-Apr-16",
  "Year": 2016,
  "Country": "USA",
  "Type": "Unprovoked",
  "Location": "New Smyrna Beach, Volusia County",
  "Activity": "Surfing",
  "Injury": "Minor injury to left foot",
  "Fatal": "N",
  "Link": "http://sharkattackfile.net/spreadsheets/pdf_directory/2016.04.23-Beardall.pdf",
  "Lat": 29.0258,
  "Lng": -80.927
},
{
  "_id": {
    "$oid": "64c08d4b96c159958ed561cf"
  },
  "": 75,
  "Case Number": "2016.03.31",
  "Date": "31-Mar-16",
  "Year": 2016,
  "Country": "USA",
  "Type": "Unprovoked",
  "Location": "Olowalu, Maui",
  "Activity": "Snorkeling",
  "Injury": "Minor injury to left foot",
  "Fatal": "N",
  "Link": "http://sharkattackfile.net/spreadsheets/pdf_directory/2016.03.31-Orr.pdf",
  "Lat": 20.8123,
  "Lng": -156.6214
},
{
  "_id": {
    "$oid": "64c08d4b96c159958ed561d0"
  },
  "": 76,
  "Case Number": "2016.03.28.b",
  "Date": "28-Mar-16",
  "Year": 2016,
  "Country": "USA",
  "Type": "Unprovoked",
  "Location": "Fort Myers Beach, Lee County",
  "Injury": "Minor injury to arm. Possibly caused by smalll nurse shark",
  "Link": "http://sharkattackfile.net/spreadsheets/pdf_directory/2016.03.28.b-Kawa.pdf",
  "Lat": 26.452,
  "Lng": -81.9481
},
{
  "_id": {
    "$oid": "64c08d4b96c159958ed561d1"
  },
  "": 77,
  "Case Number": "2016.03.11",
  "Date": "11-Mar-16",
  "Year": 2016,
  "Country": "USA",
  "Type": "Unprovoked",
  "Location": "Vero Beach, St. Lucie County",
  "Activity": "Body surfing",
  "Injury": "Lacerations to right foot and ankle",
  "Fatal": "N",
  "Link": "http://sharkattackfile.net/spreadsheets/pdf_directory/2016.03.11-Kenny.pdf",
  "Lat": 27.6386,
  "Lng": -80.3973
},
{
  "_id": {
    "$oid": "64c08d4b96c159958ed561d2"
  },
  "": 78,
  "Case Number": "2015.11.15.b",
  "Date": "15-Nov-15",
  "Year": 2015,
  "Country": "USA",
  "Type": "Unprovoked",
  "Location": "Palm Beach, Palm Beach County",
  "Activity": "Swimming",
  "Injury": "Leg injured",
  "Fatal": "N",
  "Link": "http://sharkattackfile.net/spreadsheets/pdf_directory/2015.11.15.b-SRB.pdf",
  "Lat": 26.6503,
  "Lng": -80.4498
},
{
  "_id": {
    "$oid": "64c08d4b96c159958ed561d3"
  },
  "": 79,
  "Case Number": "2015.12.23",
  "Date": "7-Nov-15",
  "Year": 2015,
  "Country": "USA",
  "Type": "Invalid",
  "Location": "Paradise Beach, Melbourne, Brevard County",
  "Activity": "Surfing",
  "Injury": "Lower left leg injured",
  "Link": "http://sharkattackfile.net/spreadsheets/pdf_directory/2015.11.07-Underwood.pdf",
  "Lat": -38.1894,
  "Lng": 147.4241
},
{
  "_id": {
    "$oid": "64c08d4b96c159958ed561d4"
  },
  "": 80,
  "Case Number": "2015.11.01.b",
  "Date": "1-Nov-15",
  "Year": 2015,
  "Country": "USA",
  "Type": "Unprovoked",
  "Location": "Cocoa Beach, Brevard  County",
  "Activity": "Wading",
  "Injury": "Injury to right ankle/calf & hand",
  "Fatal": "N",
  "Link": "http://sharkattackfile.net/spreadsheets/pdf_directory/2015.11.01.b-Kruse.pdf",
  "Lat": 28.32,
  "Lng": -80.6076
},
{
  "_id": {
    "$oid": "64c08d4b96c159958ed561d5"
  },
  "": 81,
  "Case Number": "2015.10.28.a",
  "Date": "28-Oct-15",
  "Year": 2015,
  "Country": "USA",
  "Type": "Unprovoked",
  "Location": "Malaka, Oahu",
  "Activity": "Body boarding",
  "Injury": "Lacerations & puncture wounds to right thigh, calf & ankle",
  "Fatal": "N",
  "Link": "http://sharkattackfile.net/spreadsheets/pdf_directory/2015.10.28-Senensi.pdf",
  "Lat": -22.6138,
  "Lng": 27.328
},
{
  "_id": {
    "$oid": "64c08d4b96c159958ed561d6"
  },
  "": 82,
  "Case Number": "2015.10.19",
  "Date": "19-Oct-15",
  "Year": 2015,
  "Country": "USA",
  "Type": "Unprovoked",
  "Location": "Deerfield Beach, Broward County",
  "Activity": "Surfing",
  "Injury": "Left foot bitten",
  "Fatal": "N",
  "Link": "http://sharkattackfile.net/spreadsheets/pdf_directory/2015.10.19-Kirn.pdf",
  "Lat": 26.3184,
  "Lng": -80.0998
},
{
  "_id": {
    "$oid": "64c08d4b96c159958ed561d7"
  },
  "": 83,
  "Case Number": "2015.10.05.a",
  "Date": "5-Oct-15",
  "Year": 2015,
  "Country": "USA",
  "Type": "Unprovoked",
  "Location": "Galveston",
  "Activity": "Wading",
  "Injury": "Foot & hands bitten",
  "Fatal": "N",
  "Link": "http://sharkattackfile.net/spreadsheets/pdf_directory/2015.10.05.a-Slaughter.pdf",
  "Lat": 29.3669,
  "Lng": -94.9669
},
{
  "_id": {
    "$oid": "64c08d4b96c159958ed561d8"
  },
  "": 84,
  "Case Number": "2015.10.04",
  "Date": "4-Oct-15",
  "Year": 2015,
  "Country": "USA",
  "Type": "Unprovoked",
  "Location": "New Smyrna Beach, Volusia County",
  "Activity": "Surfing",
  "Injury": "Severe lacerations to left hand",
  "Fatal": "N",
  "Link": "http://sharkattackfile.net/spreadsheets/pdf_directory/2015.10.04-Tarasovic.pdf",
  "Lat": 29.0258,
  "Lng": -80.927
},
{
  "_id": {
    "$oid": "64c08d4b96c159958ed561d9"
  },
  "": 85,
  "Case Number": "2015.09.29",
  "Date": "29-Sep-15",
  "Year": 2015,
  "Country": "USA",
  "Type": "Unprovoked",
  "Location": "Vilano Beach, St.  Johns County",
  "Activity": "Surfing",
  "Injury": "Laceration to heel, puncture wounds to dorsum of foot",
  "Fatal": "N",
  "Link": "http://sharkattackfile.net/spreadsheets/pdf_directory/2015.09.29-Morrison.pdf",
  "Lat": 29.9189,
  "Lng": -81.2928
},
{
  "_id": {
    "$oid": "64c08d4b96c159958ed561da"
  },
  "": 86,
  "Case Number": "2015.09.20.d",
  "Date": "20-Sep-15",
  "Year": 2015,
  "Country": "USA",
  "Type": "Unprovoked",
  "Location": "New Smyrna Beach, Volusia County",
  "Activity": "Surfing",
  "Injury": "Minor injury to left ankle",
  "Fatal": "N",
  "Link": "http://sharkattackfile.net/spreadsheets/pdf_directory/2015.09.20.d-NSB.pdf",
  "Lat": 29.0258,
  "Lng": -80.927
},
{
  "_id": {
    "$oid": "64c08d4b96c159958ed561db"
  },
  "": 87,
  "Case Number": "2015.09.20.a",
  "Date": "20-Sep-15",
  "Year": 2015,
  "Country": "USA",
  "Type": "Unprovoked",
  "Location": "Vilano Beach, St.  Johns County",
  "Activity": "Photographing fish",
  "Injury": "Injury to right hand / wrist",
  "Fatal": "N",
  "Link": "http://sharkattackfile.net/spreadsheets/pdf_directory/2015.09.20.a-Schiavo.pdf",
  "Lat": 29.9189,
  "Lng": -81.2928
},
{
  "_id": {
    "$oid": "64c08d4b96c159958ed561dc"
  },
  "": 88,
  "Case Number": "2015.09.17",
  "Date": "17-Sep-15",
  "Year": 2015,
  "Country": "USA",
  "Type": "Unprovoked",
  "Location": "Jacksonville Beach, Duval County",
  "Activity": "Surfing",
  "Injury": "Injury to right foot",
  "Fatal": "N",
  "Link": "http://sharkattackfile.net/spreadsheets/pdf_directory/2015.09.17-Liebetrau.pdf",
  "Lat": 30.2947,
  "Lng": -81.3931
},
{
  "_id": {
    "$oid": "64c08d4b96c159958ed561dd"
  },
  "": 89,
  "Case Number": "2015.09.03",
  "Date": "3-Sep-15",
  "Year": 2015,
  "Country": "USA",
  "Type": "Unprovoked",
  "Location": "Myrtle Beach, Horry County",
  "Injury": "Right foot bitten",
  "Fatal": "N",
  "Link": "http://sharkattackfile.net/spreadsheets/pdf_directory/2015.09.03-Wagner.pdf",
  "Lat": 33.6891,
  "Lng": -78.8867
},
{
  "_id": {
    "$oid": "64c08d4b96c159958ed561de"
  },
  "": 90,
  "Case Number": "2015.08.29.a",
  "Date": "29-Aug-15",
  "Year": 2015,
  "Country": "USA",
  "Type": "Unprovoked",
  "Location": "Morro Bay, San Luis Obispo County",
  "Activity": "Surfing",
  "Injury": "No injury, shark struk sufer's leg and his board",
  "Fatal": "N",
  "Link": "http://sharkattackfile.net/spreadsheets/pdf_directory/2015.08.29.a-Phillips.pdf",
  "Lat": 35.3658,
  "Lng": -120.8499
},
{
  "_id": {
    "$oid": "64c08d4b96c159958ed561df"
  },
  "": 91,
  "Case Number": "2015.08.22.b",
  "Date": "22-Aug-15",
  "Year": 2015,
  "Country": "USA",
  "Type": "Invalid",
  "Location": "Cocoa Beach, Brevard  County",
  "Injury": "Wound to right lower leg",
  "Link": "http://sharkattackfile.net/spreadsheets/pdf_directory/2015.08.22.b-CocoaBeach.pdf",
  "Lat": 28.32,
  "Lng": -80.6076
},
{
  "_id": {
    "$oid": "64c08d4b96c159958ed561e0"
  },
  "": 92,
  "Case Number": "2015.08.20",
  "Date": "20-Aug-15",
  "Year": 2015,
  "Country": "USA",
  "Type": "Unprovoked",
  "Location": "Murrells Inlet, Georgetown County",
  "Activity": "Surfing",
  "Injury": "Injuries to left calf, arm and hand",
  "Fatal": "N",
  "Link": "http://sharkattackfile.net/spreadsheets/pdf_directory/2015.08.20-Peyton.pdf",
  "Lat": 33.551,
  "Lng": -79.0414
},
{
  "_id": {
    "$oid": "64c08d4b96c159958ed561e1"
  },
  "": 93,
  "Case Number": "2015.08.19",
  "Date": "19-Aug-15",
  "Year": 2015,
  "Country": "USA",
  "Type": "Unprovoked",
  "Location": "Jacksonville Beach, Duval County",
  "Activity": "Walking",
  "Injury": "Lacerations to right leg",
  "Fatal": "N",
  "Link": "http://sharkattackfile.net/spreadsheets/pdf_directory/2015.08.19-Szsarmack",
  "Lat": 30.2947,
  "Lng": -81.3931
},
{
  "_id": {
    "$oid": "64c08d4b96c159958ed561e2"
  },
  "": 94,
  "Case Number": "2015.08.18.b",
  "Date": "18-Aug-15",
  "Year": 2015,
  "Country": "USA",
  "Type": "Boating",
  "Location": "Santa Barbara County",
  "Activity": "Kayak Fishing",
  "Injury": "No injury, kayak bitten",
  "Fatal": "N",
  "Link": "http://sharkattackfile.net/spreadsheets/pdf_directory/2015.08.18.b-Lyon.pdf",
  "Lat": 34.7333,
  "Lng": -120.0343
},
{
  "_id": {
    "$oid": "64c08d4b96c159958ed561e3"
  },
  "": 95,
  "Case Number": "2015.07.26.b",
  "Date": "26-Jul-15",
  "Year": 2015,
  "Country": "USA",
  "Type": "Unprovoked",
  "Location": "Daytona Beach, Volusia County",
  "Activity": "Surfing",
  "Injury": "Minor injury to sole of foot",
  "Fatal": "N",
  "Link": "http://sharkattackfile.net/spreadsheets/pdf_directory/2015.07.26.b-Warrilow.pdf",
  "Lat": 29.2108,
  "Lng": -81.0228
},
{
  "_id": {
    "$oid": "64c08d4b96c159958ed561e4"
  },
  "": 96,
  "Case Number": "2015.07.23.b",
  "Date": "23-Jul-15",
  "Year": 2015,
  "Country": "USA",
  "Type": "Provoked",
  "Location": "La Jolla, San Diego County",
  "Activity": "Kayak Fishing",
  "Injury": "No injury to occupant. Kayak bitten by gaffed shark. PROVOKED INCIDENT",
  "Fatal": "N",
  "Link": "http://sharkattackfile.net/spreadsheets/pdf_directory/2015.07.23.b-Lorber.pdf",
  "Lat": 32.8473,
  "Lng": -117.2742
},
{
  "_id": {
    "$oid": "64c08d4b96c159958ed561e5"
  },
  "": 97,
  "Case Number": "2015.07.10",
  "Date": "10-Jul-15",
  "Year": 2015,
  "Country": "USA",
  "Type": "Unprovoked",
  "Location": "Huntington Beach, Orange County",
  "Activity": "Surfing",
  "Injury": "No injury, shark bumped & damaged board",
  "Fatal": "N",
  "Link": "http://sharkattackfile.net/spreadsheets/pdf_directory/2015.07.10-Miskin.pdf",
  "Lat": 33.6603,
  "Lng": -117.9992
},
{
  "_id": {
    "$oid": "64c08d4b96c159958ed561e6"
  },
  "": 98,
  "Case Number": "2015.07.08",
  "Date": "8-Jul-15",
  "Year": 2015,
  "Country": "USA",
  "Type": "Invalid",
  "Location": "Huntington Beach, Orange County",
  "Activity": "Treading water",
  "Injury": "Laceration to back",
  "Link": "http://sharkattackfile.net/spreadsheets/pdf_directory/2015.07.08-Finney.pdf",
  "Lat": 33.6603,
  "Lng": -117.9992
},
{
  "_id": {
    "$oid": "64c08d4b96c159958ed561e7"
  },
  "": 99,
  "Case Number": "2015.06.26.c",
  "Date": "26-Jun-15",
  "Year": 2015,
  "Country": "USA",
  "Type": "Invalid",
  "Location": "Jacksonville Beach, Duval County",
  "Activity": "Swimming",
  "Injury": "Minor lacerations to leg",
  "Link": "http://sharkattackfile.net/spreadsheets/pdf_directory/2015.06.26.c-Jacksonville.pdf",
  "Lat": 30.2947,
  "Lng": -81.3931
},
{
  "_id": {
    "$oid": "64c08d4b96c159958ed561e8"
  },
  "": 100,
  "Case Number": "2015.06.26.a",
  "Date": "26-Jun-15",
  "Year": 2015,
  "Country": "USA",
  "Type": "Unprovoked",
  "Location": "South Beach, Hunting Island State Park, Beaufort County",
  "Activity": "Standing",
  "Injury": "Puncture wounds to foot",
  "Fatal": "N",
  "Link": "http://sharkattackfile.net/spreadsheets/pdf_directory/2015.06.26.a-Donahue.pdf",
  "Lat": -42.4943,
  "Lng": 171.1742
},
{
  "_id": {
    "$oid": "64c08d4b96c159958ed561e9"
  },
  "": 101,
  "Case Number": "2015.06.25",
  "Date": "25-Jun-15",
  "Year": 2015,
  "Country": "USA",
  "Type": "Unprovoked",
  "Location": "Avon, Hatteras Island, Outer Banks, Dare County",
  "Activity": "Body surfing?",
  "Injury": "Multiple lacerations to back",
  "Fatal": "N",
  "Link": "http://sharkattackfile.net/spreadsheets/pdf_directory/2015.06.25-Avon.pdf",
  "Lat": 41.4517,
  "Lng": -82.0351
},
{
  "_id": {
    "$oid": "64c08d4b96c159958ed561ea"
  },
  "": 102,
  "Case Number": "2015.06.24.b",
  "Date": "24-Jun-15",
  "Year": 2015,
  "Country": "USA",
  "Type": "Unprovoked",
  "Location": "Surf City",
  "Activity": "Swimming",
  "Injury": "Minor injury to foot",
  "Fatal": "N",
  "Link": "http://sharkattackfile.net/spreadsheets/pdf_directory/2015.06.24.b-Noyes.pdf",
  "Lat": 34.4271,
  "Lng": -77.5461
},
{
  "_id": {
    "$oid": "64c08d4b96c159958ed561eb"
  },
  "": 103,
  "Case Number": "2015.06.17",
  "Date": "17-Jun-15",
  "Year": 2015,
  "Country": "USA",
  "Type": "Unprovoked",
  "Location": "Daytona Beach Shores",
  "Activity": "Swimming",
  "Injury": "Minor injury to calf ",
  "Fatal": "N",
  "Link": "http://sharkattackfile.net/spreadsheets/pdf_directory/2015.06.17-Simpson.pdf",
  "Lat": 29.1761,
  "Lng": -80.9828
},
{
  "_id": {
    "$oid": "64c08d4b96c159958ed561ec"
  },
  "": 104,
  "Case Number": "2015.06.14.b",
  "Date": "14-Jun-15",
  "Year": 2015,
  "Country": "USA",
  "Type": "Unprovoked",
  "Location": "Oak Island, Brunswick County",
  "Activity": "Wading",
  "Injury": "Arm amputated below shoulder",
  "Fatal": "N",
  "Link": "http://sharkattackfile.net/spreadsheets/pdf_directory/2015.06.14.b-Treschel.pdf",
  "Lat": 33.9166,
  "Lng": -78.1611
},
{
  "_id": {
    "$oid": "64c08d4b96c159958ed561ed"
  },
  "": 105,
  "Case Number": "2015.06.14.a",
  "Date": "14-Jun-15",
  "Year": 2015,
  "Country": "USA",
  "Type": "Unprovoked",
  "Location": "Oak Island, Brunswick County",
  "Activity": "Wading",
  "Injury": "Left arm amputated at elbow & severe injury to leg",
  "Fatal": "N",
  "Link": "http://sharkattackfile.net/spreadsheets/pdf_directory/2015.06.14.a-Yow.pdf",
  "Lat": 33.9166,
  "Lng": -78.1611
},
{
  "_id": {
    "$oid": "64c08d4b96c159958ed561ee"
  },
  "": 106,
  "Case Number": "2015.06.05",
  "Date": "5-Jun-15",
  "Year": 2015,
  "Country": "USA",
  "Type": "Unprovoked",
  "Location": "Fort Lauderdale",
  "Activity": "Attempting to rescue a shark",
  "Injury": "Puncture wound to finger",
  "Fatal": "N",
  "Link": "http://sharkattackfile.net/spreadsheets/pdf_directory/2015.06.05-FortLauderdale.pdf",
  "Lat": 26.1223,
  "Lng": -80.1434
},
{
  "_id": {
    "$oid": "64c08d4b96c159958ed561ef"
  },
  "": 107,
  "Case Number": "2015.05.29.b",
  "Date": "29-May-15",
  "Year": 2015,
  "Country": "USA",
  "Type": "Unprovoked",
  "Location": "Cocoa Beach, Brevard  County",
  "Activity": "Standing",
  "Injury": "Left foot bitten",
  "Fatal": "N",
  "Link": "http://sharkattackfile.net/spreadsheets/pdf_directory/2015.05.29.b-Gilpin.pdf",
  "Lat": 28.32,
  "Lng": -80.6076
},
{
  "_id": {
    "$oid": "64c08d4b96c159958ed561f0"
  },
  "": 108,
  "Case Number": "2015.05.29.a",
  "Date": "29-May-15",
  "Year": 2015,
  "Country": "USA",
  "Type": "Unprovoked",
  "Location": "New Smyrna Beach, Volusia County",
  "Activity": "Wading",
  "Injury": "Minor lacerations to dorsum of right foot",
  "Fatal": "N",
  "Link": "http://sharkattackfile.net/spreadsheets/pdf_directory/2015.05.29.a-Hatfield.pdf",
  "Lat": 29.0258,
  "Lng": -80.927
},
{
  "_id": {
    "$oid": "64c08d4b96c159958ed561f1"
  },
  "": 109,
  "Case Number": "2015.05.24",
  "Date": "24-May-15",
  "Year": 2015,
  "Country": "USA",
  "Type": "Unprovoked",
  "Location": "Cocoa Beach, Brevard  County",
  "Activity": "Swimming",
  "Injury": "Puncture wounds to lower left leg and ankle, shallow lacerations to foot, deep laceration to Achilles tendon",
  "Fatal": "N",
  "Link": "http://sharkattackfile.net/spreadsheets/pdf_directory/2015.05.24-Wheatro.pdf",
  "Lat": 28.32,
  "Lng": -80.6076
},
{
  "_id": {
    "$oid": "64c08d4b96c159958ed561f2"
  },
  "": 110,
  "Case Number": "2015.05.20",
  "Date": "20-May-15",
  "Year": 2015,
  "Country": "USA",
  "Type": "Unprovoked",
  "Location": "New Smyrna Beach, Volusia County",
  "Activity": "Surfing",
  "Injury": "2 puncture wounds to  dorsum of left foot",
  "Fatal": "N",
  "Link": "http://sharkattackfile.net/spreadsheets/pdf_directory/2015.05.20-Zaccaria.pdf",
  "Lat": 29.0258,
  "Lng": -80.927
},
{
  "_id": {
    "$oid": "64c08d4b96c159958ed561f3"
  },
  "": 111,
  "Case Number": "2015.05.15",
  "Date": "15-May-15",
  "Year": 2015,
  "Country": "USA",
  "Type": "Unprovoked",
  "Location": "Sullivan's Island",
  "Injury": "Laceration to foot ",
  "Fatal": "N",
  "Link": "http://sharkattackfile.net/spreadsheets/pdf_directory/2015.05.15-Sullivans.pdf",
  "Lat": 32.7632,
  "Lng": -79.8367
},
{
  "_id": {
    "$oid": "64c08d4b96c159958ed561f4"
  },
  "": 112,
  "Case Number": "2015.05.07",
  "Date": "7-May-15",
  "Year": 2015,
  "Country": "USA",
  "Type": "Unprovoked",
  "Location": "Cocoa Beach, Brevard  County",
  "Activity": "Swimming",
  "Injury": "Lacerations to lower left leg, ankle & foot",
  "Fatal": "N",
  "Link": "http://sharkattackfile.net/spreadsheets/pdf_directory/2015.05.07-Green.pdf",
  "Lat": 28.32,
  "Lng": -80.6076
},
{
  "_id": {
    "$oid": "64c08d4b96c159958ed561f5"
  },
  "": 113,
  "Case Number": "2015.01.27",
  "Date": "27-Jan-15",
  "Year": 2015,
  "Country": "USA",
  "Type": "Provoked",
  "Location": "Lahaina",
  "Activity": "Shark fishing",
  "Injury": "Lacerations to calf by hooked shark PROVOKED INCIDENT",
  "Fatal": "N",
  "Link": "http://sharkattackfile.net/spreadsheets/pdf_directory/2015.01.27-Pollard.pdf",
  "Lat": 20.8783,
  "Lng": -156.6825
},
{
  "_id": {
    "$oid": "64c08d4b96c159958ed561f6"
  },
  "": 114,
  "Case Number": "2015.01.08",
  "Date": "8-Jan-15",
  "Year": 2015,
  "Country": "USA",
  "Type": "Invalid",
  "Activity": "Swimming after falling overboard",
  "Injury": "During his 16-hour swim to shore, he was circled by a shark but it did not injure him",
  "Link": "http://sharkattackfile.net/spreadsheets/pdf_directory/2015.01.08-Konrad.pdf",
  "Lat": 18.8333,
  "Lng": 100.6667
},
{
  "_id": {
    "$oid": "64c08d4b96c159958ed561f7"
  },
  "": 115,
  "Case Number": "2015.01.01",
  "Date": "1-Jan-15",
  "Year": 2015,
  "Country": "USA",
  "Type": "Unprovoked",
  "Location": "Windsor Beach, Indian River County",
  "Injury": "Leg bitten",
  "Fatal": "N",
  "Link": "http://sharkattackfile.net/spreadsheets/pdf_directory/2015.01.01-Child.pdf",
  "Lat": 43.254,
  "Lng": -77.5972
},
{
  "_id": {
    "$oid": "64c08d4b96c159958ed561f8"
  },
  "": 116,
  "Case Number": "2014.10.22",
  "Date": "22-Oct-14",
  "Year": 2014,
  "Country": "USA",
  "Type": "Unprovoked",
  "Location": "Kihei, Maui",
  "Activity": "Stand-Up Paddleboarding",
  "Injury": "No injury, paddleboard bitten",
  "Fatal": "N",
  "Link": "http://sharkattackfile.net/spreadsheets/pdf_directory/2014.10.22-Lawrence.pdf",
  "Lat": 20.785,
  "Lng": -156.4656
},
{
  "_id": {
    "$oid": "64c08d4b96c159958ed561f9"
  },
  "": 117,
  "Case Number": "2014.10.20",
  "Date": "20-Oct-14",
  "Year": 2014,
  "Country": "USA",
  "Type": "Unprovoked",
  "Location": "Kahului, Maui",
  "Activity": "Stand-Up Paddleboarding",
  "Injury": "No injury, paddleboard bitten",
  "Fatal": "N",
  "Link": "http://sharkattackfile.net/spreadsheets/pdf_directory/2014.10.20-Maui.pdf",
  "Lat": 20.8947,
  "Lng": -156.47
},
{
  "_id": {
    "$oid": "64c08d4b96c159958ed561fa"
  },
  "": 118,
  "Case Number": "2014.10.18",
  "Date": "18-Oct-14",
  "Year": 2014,
  "Country": "USA",
  "Type": "Unprovoked",
  "Location": "Maalaea, South Maui",
  "Activity": "Surfing",
  "Injury": "No injury, surfboard bitten",
  "Fatal": "N",
  "Link": "http://sharkattackfile.net/spreadsheets/pdf_directory/2014.10.18-Roberson.pdf",
  "Lat": 20.7964,
  "Lng": -156.5142
},
{
  "_id": {
    "$oid": "64c08d4b96c159958ed561fb"
  },
  "": 119,
  "Case Number": "2014.10.14",
  "Date": "14-Oct-14",
  "Year": 2014,
  "Country": "USA",
  "Type": "Unprovoked",
  "Location": "Hilton Head Island, Beaufort County",
  "Activity": "Standing in inner tube",
  "Injury": "Lacerations to left foot",
  "Fatal": "N",
  "Link": "http://sharkattackfile.net/spreadsheets/pdf_directory/2014.10.14-Bandy.pdf",
  "Lat": 32.2163,
  "Lng": -80.7526
},
{
  "_id": {
    "$oid": "64c08d4b96c159958ed561fc"
  },
  "": 120,
  "Case Number": "2014.10.12",
  "Date": "12-Oct-14",
  "Year": 2014,
  "Country": "USA",
  "Type": "Unprovoked",
  "Location": "Melbourne Beach, Brevard County",
  "Activity": "Body surfing or Boogie boarding",
  "Injury": "Laceration to right hand/wrist",
  "Fatal": "N",
  "Link": "http://sharkattackfile.net/spreadsheets/pdf_directory/2014.10.12-Melbourne.pdf",
  "Lat": 28.0684,
  "Lng": -80.5603
},
{
  "_id": {
    "$oid": "64c08d4b96c159958ed561fd"
  },
  "": 121,
  "Case Number": "2014.10.05.b",
  "Date": "5-Oct-14",
  "Year": 2014,
  "Country": "USA",
  "Type": "Unprovoked",
  "Location": "New Smyrna Beach, Volusia County",
  "Activity": "Surfing",
  "Injury": "Foot bitten",
  "Fatal": "N",
  "Link": "http://sharkattackfile.net/spreadsheets/pdf_directory/2014.10.05.b-Ross.pdf",
  "Lat": 29.0258,
  "Lng": -80.927
},
{
  "_id": {
    "$oid": "64c08d4b96c159958ed561fe"
  },
  "": 122,
  "Case Number": "2014.10.05.a",
  "Date": "5-Oct-14",
  "Year": 2014,
  "Country": "USA",
  "Type": "Unprovoked",
  "Location": "New Smyrna Beach, Volusia County",
  "Activity": "Surfing",
  "Injury": "Foot bitten",
  "Fatal": "N",
  "Link": "http://sharkattackfile.net/spreadsheets/pdf_directory/2014.10.05.a-Mantooth.pdf",
  "Lat": 29.0258,
  "Lng": -80.927
},
{
  "_id": {
    "$oid": "64c08d4b96c159958ed561ff"
  },
  "": 123,
  "Case Number": "2014.10.03.b",
  "Date": "3-Oct-14",
  "Year": 2014,
  "Country": "USA",
  "Type": "Boating",
  "Location": "Santa Barbara County",
  "Activity": "Kayaking",
  "Injury": "No injury to occupant, shark/s holded  kayak",
  "Fatal": "N",
  "Link": "http://sharkattackfile.net/spreadsheets/pdf_directory/2014.10.03.b-Kayaks2.pdf",
  "Lat": 34.7333,
  "Lng": -120.0343
},
{
  "_id": {
    "$oid": "64c08d4b96c159958ed56200"
  },
  "": 124,
  "Case Number": "2014.10.03.a",
  "Date": "3-Oct-14",
  "Year": 2014,
  "Country": "USA",
  "Type": "Boating",
  "Location": "Santa Barbara County",
  "Activity": "Kayaking ",
  "Injury": "No injury to occupant, shark/s holded  kayak",
  "Fatal": "N",
  "Link": "http://sharkattackfile.net/spreadsheets/pdf_directory/2014.10.03.a-Kayaks1.pdf",
  "Lat": 34.7333,
  "Lng": -120.0343
},
{
  "_id": {
    "$oid": "64c08d4b96c159958ed56201"
  },
  "": 125,
  "Case Number": "2014.09.21",
  "Date": "21-Sep-14",
  "Year": 2014,
  "Country": "USA",
  "Type": "Unprovoked",
  "Location": "New Smyrna Beach, Volusia County",
  "Activity": "Surfing",
  "Injury": "Minor injury to left foot",
  "Fatal": "N",
  "Link": "http://sharkattackfile.net/spreadsheets/pdf_directory/2014.09.21-Lefebvre.pdf",
  "Lat": 29.0258,
  "Lng": -80.927
},
{
  "_id": {
    "$oid": "64c08d4b96c159958ed56202"
  },
  "": 126,
  "Case Number": "2014.08.31",
  "Date": "31-Aug-14",
  "Year": 2014,
  "Country": "USA",
  "Type": "Unprovoked",
  "Location": "New Smyrna Beach, Volusia County",
  "Activity": "Body surfing",
  "Injury": "Injury to left calf",
  "Fatal": "N",
  "Link": "http://sharkattackfile.net/spreadsheets/pdf_directory/2014.08.31-Masterson.pdf",
  "Lat": 29.0258,
  "Lng": -80.927
},
{
  "_id": {
    "$oid": "64c08d4b96c159958ed56203"
  },
  "": 127,
  "Case Number": "2014.08.29.b",
  "Date": "29-Aug-14",
  "Year": 2014,
  "Country": "USA",
  "Type": "Unprovoked",
  "Location": "Ponce Inlet, Volusia County",
  "Activity": "Surfing",
  "Injury": "Lacerations to shin",
  "Fatal": "N",
  "Link": "http://sharkattackfile.net/spreadsheets/pdf_directory/2014.08.29.b-Murphy.pdf",
  "Lat": 29.0964,
  "Lng": -80.937
},
{
  "_id": {
    "$oid": "64c08d4b96c159958ed56204"
  },
  "": 128,
  "Case Number": "2014.08.29.a",
  "Date": "29-Aug-14",
  "Year": 2014,
  "Country": "USA",
  "Type": "Invalid",
  "Location": "Atlantic Beach, Duval County",
  "Injury": "Shark involvement not confirmed",
  "Link": "http://sharkattackfile.net/spreadsheets/pdf_directory/2014.08.29.a-AtlanticBeach.pdf",
  "Lat": 30.3344,
  "Lng": -81.3987
},
{
  "_id": {
    "$oid": "64c08d4b96c159958ed56205"
  },
  "": 129,
  "Case Number": "2014.08.27.a",
  "Date": "27-Aug-14",
  "Year": 2014,
  "Country": "USA",
  "Type": "Unprovoked",
  "Location": "Surfside Beach, Horry  County",
  "Activity": "Standing",
  "Injury": "Heel bitten",
  "Fatal": "N",
  "Link": "http://sharkattackfile.net/spreadsheets/pdf_directory/2014.08.27.a-Surfside.pdf",
  "Lat": 33.606,
  "Lng": -78.9731
},
{
  "_id": {
    "$oid": "64c08d4b96c159958ed56206"
  },
  "": 130,
  "Case Number": "2014.08.10",
  "Date": "10-Aug-14",
  "Year": 2014,
  "Country": "USA",
  "Type": "Unprovoked",
  "Location": "Hallandale Beach, Broward County",
  "Injury": "Puncture wounds & lacerations to foot",
  "Fatal": "N",
  "Link": "http://sharkattackfile.net/spreadsheets/pdf_directory/2014.08.10-Hallandale.pdf",
  "Lat": 25.9812,
  "Lng": -80.1484
},
{
  "_id": {
    "$oid": "64c08d4b96c159958ed56207"
  },
  "": 131,
  "Case Number": "2014.08.06",
  "Date": "6-Aug-14",
  "Year": 2014,
  "Country": "USA",
  "Type": "Unprovoked",
  "Location": "Folly Beach, Charleston County",
  "Activity": "Boogie boarding",
  "Injury": "Lacerations to right leg & foot",
  "Fatal": "N",
  "Link": "http://sharkattackfile.net/spreadsheets/pdf_directory/2014.08.14-Harris.pdf",
  "Lat": 32.6552,
  "Lng": -79.9404
},
{
  "_id": {
    "$oid": "64c08d4b96c159958ed56208"
  },
  "": 132,
  "Case Number": "2014.08.05",
  "Date": "5-Aug-14",
  "Year": 2014,
  "Country": "USA",
  "Type": "Unprovoked",
  "Location": "Cocoa Beach, Brevard  County",
  "Activity": "Swimming",
  "Injury": "Lacerations to  foot",
  "Fatal": "N",
  "Link": "http://sharkattackfile.net/spreadsheets/pdf_directory/2014.08.05-Tulip.pdf",
  "Lat": 28.32,
  "Lng": -80.6076
},
{
  "_id": {
    "$oid": "64c08d4b96c159958ed56209"
  },
  "": 133,
  "Case Number": "2014.07.27",
  "Date": "27-Jul-14",
  "Year": 2014,
  "Country": "USA",
  "Type": "Unprovoked",
  "Location": "Sunset Beach, Brunswick County",
  "Activity": "Swimming",
  "Injury": "Left foot bitten",
  "Fatal": "N",
  "Link": "http://sharkattackfile.net/spreadsheets/pdf_directory/2014.07.27-SunsetBeach.pdf",
  "Lat": 33.8807,
  "Lng": -78.5122
},
{
  "_id": {
    "$oid": "64c08d4b96c159958ed5620a"
  },
  "": 134,
  "Case Number": "2014.07.21",
  "Date": "21-Jul-14",
  "Year": 2014,
  "Country": "USA",
  "Type": "Unprovoked",
  "Location": "Indialantic, Brevard County",
  "Activity": "Standing",
  "Injury": "Lacerations to right knee",
  "Fatal": "N",
  "Link": "http://sharkattackfile.net/spreadsheets/pdf_directory/2014.07.21-Crick.pdf",
  "Lat": 28.0895,
  "Lng": -80.5656
},
{
  "_id": {
    "$oid": "64c08d4b96c159958ed5620b"
  },
  "": 135,
  "Case Number": "2014.07.09",
  "Date": "9-Jul-14",
  "Year": 2014,
  "Country": "USA",
  "Type": "Unprovoked",
  "Location": "New Smyrna Beach, Volusia County",
  "Activity": "Surfing",
  "Injury": "Lacerations to foot",
  "Fatal": "N",
  "Link": "http://sharkattackfile.net/spreadsheets/pdf_directory/2014.07.09-Durham.pdf",
  "Lat": 29.0258,
  "Lng": -80.927
},
{
  "_id": {
    "$oid": "64c08d4b96c159958ed5620c"
  },
  "": 136,
  "Case Number": "2014.07.05.b",
  "Date": "5-Jul-14",
  "Year": 2014,
  "Country": "USA",
  "Type": "Provoked",
  "Location": "Manhattan Beach, Los Angeles County",
  "Activity": "Swimming",
  "Injury": "PROVOKED INCIDENT Torso bitten by shark hooked by an angler",
  "Fatal": "N",
  "Link": "http://sharkattackfile.net/spreadsheets/pdf_directory/2014.07.05.b-Robles.pdf",
  "Lat": 33.8847,
  "Lng": -118.4109
},
{
  "_id": {
    "$oid": "64c08d4b96c159958ed5620d"
  },
  "": 137,
  "Case Number": "2014.07.03",
  "Date": "3-Jul-14",
  "Year": 2014,
  "Country": "USA",
  "Type": "Unprovoked",
  "Location": "Isle of Palms, Charleston County",
  "Activity": "Body surfing",
  "Injury": "Right hand bitten",
  "Fatal": "N",
  "Link": "http://sharkattackfile.net/spreadsheets/pdf_directory/2014.07.03-Fairbourne.pdf",
  "Lat": 32.7868,
  "Lng": -79.7948
},
{
  "_id": {
    "$oid": "64c08d4b96c159958ed5620e"
  },
  "": 138,
  "Case Number": "2014.06.07",
  "Date": "7-Jun-14",
  "Year": 2014,
  "Country": "USA",
  "Type": "Unprovoked",
  "Location": "West Beach, Galveston",
  "Activity": "Kneeling in the water",
  "Injury": "Shallow lacerations & puncture wounds below shoulder",
  "Fatal": "N",
  "Link": "http://sharkattackfile.net/spreadsheets/pdf_directory/2014.06.07-Medina.pdf",
  "Lat": -34.9454,
  "Lng": 138.5019
},
{
  "_id": {
    "$oid": "64c08d4b96c159958ed5620f"
  },
  "": 139,
  "Case Number": "2014.06.01.c",
  "Date": "1-Jun-14",
  "Year": 2014,
  "Country": "USA",
  "Type": "Unprovoked",
  "Location": "Fort Lauderdale",
  "Activity": "Swimming",
  "Injury": "Laceration to right lower leg",
  "Fatal": "N",
  "Link": "http://sharkattackfile.net/spreadsheets/pdf_directory/2014.06.01.c-Vaughn.pdf",
  "Lat": 26.1223,
  "Lng": -80.1434
},
{
  "_id": {
    "$oid": "64c08d4b96c159958ed56210"
  },
  "": 140,
  "Case Number": "2014.06.01.a",
  "Date": "1-Jun-14",
  "Year": 2014,
  "Country": "USA",
  "Type": "Unprovoked",
  "Activity": "Tagging sharks",
  "Injury": "Laceration to left hand",
  "Fatal": "N",
  "Link": "http://sharkattackfile.net/spreadsheets/pdf_directory/2014.06.01.a-PalmyraAtoll.pdf",
  "Lat": 18.8333,
  "Lng": 100.6667
},
{
  "_id": {
    "$oid": "64c08d4b96c159958ed56211"
  },
  "": 141,
  "Case Number": "2014.05.13",
  "Date": "13-May-14",
  "Year": 2014,
  "Country": "USA",
  "Type": "Unprovoked",
  "Location": "Jacksonville Beach, Duval County",
  "Activity": "Wading",
  "Injury": "Lacerations and puncture wounds to right foot",
  "Fatal": "N",
  "Link": "http://sharkattackfile.net/spreadsheets/pdf_directory/2014.05.13-Cosa.pdf",
  "Lat": 30.2947,
  "Lng": -81.3931
},
{
  "_id": {
    "$oid": "64c08d4b96c159958ed56212"
  },
  "": 142,
  "Case Number": "2014.05.11",
  "Date": "11-May-14",
  "Year": 2014,
  "Country": "USA",
  "Type": "Unprovoked",
  "Location": "Tybee Island, Chatham County",
  "Activity": "Surfing",
  "Injury": "Puncture wounds to right thigh",
  "Fatal": "N",
  "Link": "http://sharkattackfile.net/spreadsheets/pdf_directory/2014.05.11-Meadows.pdf",
  "Lat": 32.0002,
  "Lng": -80.8457
},
{
  "_id": {
    "$oid": "64c08d4b96c159958ed56213"
  },
  "": 143,
  "Case Number": "2014.05.01",
  "Date": "1-May-14",
  "Year": 2014,
  "Country": "USA",
  "Type": "Unprovoked",
  "Location": "New Smyrna Beach, Volusia County",
  "Activity": "Surfing",
  "Injury": "Laceration to right hand and cuts on fingertips",
  "Fatal": "N",
  "Link": "http://sharkattackfile.net/spreadsheets/pdf_directory/2014.05.01-Nolet.pdf",
  "Lat": 29.0258,
  "Lng": -80.927
},
{
  "_id": {
    "$oid": "64c08d4b96c159958ed56214"
  },
  "": 144,
  "Case Number": "2014.04.22",
  "Date": "22-Apr-14",
  "Year": 2014,
  "Country": "USA",
  "Type": "Unprovoked",
  "Location": "Cocoa Beach, Brevard  County",
  "Activity": "Swimming",
  "Injury": "Laceration & puncture wounds to right foot",
  "Fatal": "N",
  "Link": "http://sharkattackfile.net/spreadsheets/pdf_directory/2014.04.22-CocoaBeach.pdf",
  "Lat": 28.32,
  "Lng": -80.6076
},
{
  "_id": {
    "$oid": "64c08d4b96c159958ed56215"
  },
  "": 145,
  "Case Number": "2014.04.15",
  "Date": "15-Apr-14",
  "Year": 2014,
  "Country": "USA",
  "Type": "Unprovoked",
  "Location": "New Smyrna Beach, Volusia County",
  "Activity": "Wading",
  "Injury": "Minor lacerations to left foot",
  "Fatal": "N",
  "Link": "http://sharkattackfile.net/spreadsheets/pdf_directory/2014.04.15-NSB.pdf",
  "Lat": 29.0258,
  "Lng": -80.927
},
{
  "_id": {
    "$oid": "64c08d4b96c159958ed56216"
  },
  "": 146,
  "Case Number": "2014.04.04.b",
  "Date": "4-Apr-14",
  "Year": 2014,
  "Country": "USA",
  "Type": "Unprovoked",
  "Location": "New Smyrna Beach, Volusia County",
  "Activity": "Surfing",
  "Injury": "Minor puncture wounds to lower left leg",
  "Fatal": "N",
  "Link": "http://sharkattackfile.net/spreadsheets/pdf_directory/2014.04.04.b-NSB.pdf",
  "Lat": 29.0258,
  "Lng": -80.927
},
{
  "_id": {
    "$oid": "64c08d4b96c159958ed56217"
  },
  "": 147,
  "Case Number": "2014.04.04.a",
  "Date": "4-Apr-14",
  "Year": 2014,
  "Country": "USA",
  "Type": "Unprovoked",
  "Location": "New Smyrna Beach, Volusia County",
  "Activity": "Surfing",
  "Injury": "Lacerations to foot",
  "Fatal": "N",
  "Link": "http://sharkattackfile.net/spreadsheets/pdf_directory/2014.04.04.a-NSB.pdf",
  "Lat": 29.0258,
  "Lng": -80.927
},
{
  "_id": {
    "$oid": "64c08d4b96c159958ed56218"
  },
  "": 148,
  "Case Number": "2014.03.22.a",
  "Date": "22-Mar-14",
  "Year": 2014,
  "Country": "USA",
  "Type": "Unprovoked",
  "Location": "Delray Beach",
  "Activity": "Kite Surfing",
  "Injury": "Lacerations to left forearm",
  "Fatal": "N",
  "Link": "http://sharkattackfile.net/spreadsheets/pdf_directory/2014.03.22.a-Hoffman.pdf",
  "Lat": 26.4615,
  "Lng": -80.0728
},
{
  "_id": {
    "$oid": "64c08d4b96c159958ed56219"
  },
  "": 149,
  "Case Number": "2014.00.00.b",
  "Date": 2014,
  "Year": 2014,
  "Country": "USA",
  "Type": "Unprovoked",
  "Activity": "Free diving / Photographing pilot whales",
  "Injury": "\"Minor laceration to shoulder\"",
  "Fatal": "N",
  "Link": "http://sharkattackfile.net/spreadsheets/pdf_directory/2014.00.00.b-OceanicWhitetip.pdf",
  "Lat": 18.8333,
  "Lng": 100.6667
},
{
  "_id": {
    "$oid": "64c08d4b96c159958ed5621a"
  },
  "": 150,
  "Case Number": "2013.12.10",
  "Date": "10-Dec-13",
  "Year": 2013,
  "Country": "USA",
  "Type": "Unprovoked",
  "Location": "Cocoa Beach, Brevard  County",
  "Activity": "Surfing",
  "Injury": "Right foot bitten",
  "Fatal": "N",
  "Link": "http://sharkattackfile.net/spreadsheets/pdf_directory/2013.12.10-Baughman.pdf",
  "Lat": 28.32,
  "Lng": -80.6076
},
{
  "_id": {
    "$oid": "64c08d4b96c159958ed5621b"
  },
  "": 151,
  "Case Number": "2013.11.07.a",
  "Date": "7-Nov-13",
  "Year": 2013,
  "Country": "USA",
  "Type": "Unprovoked",
  "Location": "Floridana Beach, Brevard County",
  "Activity": "Surfing",
  "Injury": "Foot bitten",
  "Fatal": "N",
  "Link": "http://sharkattackfile.net/spreadsheets/pdf_directory/2013.11.07.a-Melian.pdf",
  "Lat": 27.9464,
  "Lng": -80.4956
},
{
  "_id": {
    "$oid": "64c08d4b96c159958ed5621c"
  },
  "": 152,
  "Case Number": "2013.10.23",
  "Date": "23-Oct-13",
  "Year": 2013,
  "Country": "USA",
  "Type": "Unprovoked",
  "Location": "Waiehu, Maui",
  "Activity": "Diving ",
  "Injury": "3\" laceration to left hip",
  "Fatal": "N",
  "Link": "http://sharkattackfile.net/spreadsheets/pdf_directory/2013.10.23-ShaneMills.pdf",
  "Lat": 20.9214,
  "Lng": -156.4969
},
{
  "_id": {
    "$oid": "64c08d4b96c159958ed5621d"
  },
  "": 153,
  "Case Number": "2013.10.19",
  "Date": "19-Oct-13",
  "Year": 2013,
  "Country": "USA",
  "Type": "Unprovoked",
  "Location": "Miami Beach",
  "Activity": "Wading",
  "Injury": "Bitten on left calf & foot",
  "Fatal": "N",
  "Link": "http://sharkattackfile.net/spreadsheets/pdf_directory/2013.10.19-Hamby.pdf",
  "Lat": 25.7906,
  "Lng": -80.1301
},
{
  "_id": {
    "$oid": "64c08d4b96c159958ed5621e"
  },
  "": 154,
  "Case Number": "2013.10.05",
  "Date": "10-Oct-13",
  "Year": 2013,
  "Country": "USA",
  "Type": "Unprovoked",
  "Location": "Destin, Okaloosa County",
  "Activity": "Wading",
  "Injury": "Lacerations to  right forearm",
  "Fatal": "N",
  "Link": "http://sharkattackfile.net/spreadsheets/pdf_directory/2013.10.05-Standridge.pdf",
  "Lat": 30.3935,
  "Lng": -86.4958
},
{
  "_id": {
    "$oid": "64c08d4b96c159958ed5621f"
  },
  "": 155,
  "Case Number": "2013.09.29.b",
  "Date": "29-Sep-13",
  "Year": 2013,
  "Country": "USA",
  "Type": "Unprovoked",
  "Location": "Melbourne Beach, Brevard County",
  "Activity": "Surfing",
  "Injury": "Lacerations to hand",
  "Fatal": "N",
  "Link": "http://sharkattackfile.net/spreadsheets/pdf_directory/2013.09.29.b-BrevardSurfer.pdf",
  "Lat": 28.0684,
  "Lng": -80.5603
},
{
  "_id": {
    "$oid": "64c08d4b96c159958ed56220"
  },
  "": 156,
  "Case Number": "2013.09.25",
  "Date": " 25-Sep-2013",
  "Year": 2013,
  "Country": "USA",
  "Type": "Unprovoked",
  "Location": "Panama City, Bay County",
  "Activity": "Standing",
  "Injury": "Laceration and puncture wounds to ankle",
  "Fatal": "N",
  "Link": "http://sharkattackfile.net/spreadsheets/pdf_directory/2013.09.25-EthanHand.pdf",
  "Lat": 8.9936,
  "Lng": -79.5197
},
{
  "_id": {
    "$oid": "64c08d4b96c159958ed56221"
  },
  "": 157,
  "Case Number": "2013.09.21.b",
  "Date": " 21-Sep-2013",
  "Year": 2013,
  "Country": "USA",
  "Type": "Unprovoked",
  "Location": "Ormond Beach, Volusia County",
  "Activity": "Swimming",
  "Injury": "Lacerations to right foot",
  "Fatal": "N",
  "Link": "http://sharkattackfile.net/spreadsheets/pdf_directory/2013.09.21.b-OrmondBeach.pdf",
  "Lat": 29.2858,
  "Lng": -81.0559
},
{
  "_id": {
    "$oid": "64c08d4b96c159958ed56222"
  },
  "": 158,
  "Case Number": "2013.09.14",
  "Date": " 14-Sep-2013",
  "Year": 2013,
  "Country": "USA",
  "Type": "Unprovoked",
  "Location": "Casino Beach, Pensacola, Escambia County",
  "Activity": "Swimming",
  "Injury": "Lacerations to right foot",
  "Fatal": "N",
  "Link": "http://sharkattackfile.net/spreadsheets/pdf_directory/2013.09.14-Kalck.pdf",
  "Lat": 42.6241,
  "Lng": -95.2286
},
{
  "_id": {
    "$oid": "64c08d4b96c159958ed56223"
  },
  "": 159,
  "Case Number": "2013.09.12",
  "Date": " 12-Sep-2013",
  "Year": 2013,
  "Country": "USA",
  "Type": "Unprovoked",
  "Location": "New Smyrna Beach,  Volusia County",
  "Activity": "Surfing",
  "Injury": "Heel bitten",
  "Fatal": "N",
  "Link": "http://sharkattackfile.net/spreadsheets/pdf_directory/2013.09.12-Portman.pdf",
  "Lat": 29.0258,
  "Lng": -80.927
},
{
  "_id": {
    "$oid": "64c08d4b96c159958ed56224"
  },
  "": 160,
  "Case Number": "2013.09.07.b",
  "Date": " 07-Sep-2013",
  "Year": 2013,
  "Country": "USA",
  "Type": "Provoked",
  "Location": "New Smyrna Beach,  Volusia County",
  "Activity": "Surfing",
  "Injury": "Foot bitten when he accidentally jumped onto the shark PROVOKED INCIDENT",
  "Fatal": "N",
  "Link": "http://sharkattackfile.net/spreadsheets/pdf_directory/2013.09.07.b-Graham.pdf",
  "Lat": 29.0258,
  "Lng": -80.927
},
{
  "_id": {
    "$oid": "64c08d4b96c159958ed56225"
  },
  "": 161,
  "Case Number": "2013.09.07.a",
  "Date": " 07-Sep-2013",
  "Year": 2013,
  "Country": "USA",
  "Type": "Unprovoked",
  "Location": "New Smyrna Beach,  Volusia County",
  "Activity": "Standing",
  "Injury": "Minor injury, shin bitten",
  "Fatal": "N",
  "Link": "http://sharkattackfile.net/spreadsheets/pdf_directory/2013.09.07.a-Cardiel.pdf",
  "Lat": 29.0258,
  "Lng": -80.927
},
{
  "_id": {
    "$oid": "64c08d4b96c159958ed56226"
  },
  "": 162,
  "Case Number": "2013.09.02",
  "Date": " 02-Sep-2013",
  "Year": 2013,
  "Country": "USA",
  "Type": "Unprovoked",
  "Location": "Ormond Beach, Volusia County",
  "Activity": "Swimming",
  "Injury": "Shoulder bitten",
  "Fatal": "N",
  "Link": "http://sharkattackfile.net/spreadsheets/pdf_directory/2013.09.02-Floyd.pdf",
  "Lat": 29.2858,
  "Lng": -81.0559
},
{
  "_id": {
    "$oid": "64c08d4b96c159958ed56227"
  },
  "": 163,
  "Case Number": "2013.08.17",
  "Date": "17-Aug-13",
  "Year": 2013,
  "Country": "USA",
  "Type": "Unprovoked",
  "Location": "Pillar Point, Half-Moon Bay, San Mateo County",
  "Activity": "Surfing",
  "Injury": "No injury, shark bumped surfboard",
  "Fatal": "N",
  "Link": "http://sharkattackfile.net/spreadsheets/pdf_directory/2013.08.17-Zaccaro.pdf",
  "Lat": 43.9703,
  "Lng": -76.1258
},
{
  "_id": {
    "$oid": "64c08d4b96c159958ed56228"
  },
  "": 164,
  "Case Number": "2013.08.11",
  "Date": "11-Aug-13",
  "Year": 2013,
  "Country": "USA",
  "Type": "Unprovoked",
  "Location": "Folly Beach",
  "Activity": "Surfing",
  "Injury": "No injury, shark became entangled in his surfboard leash",
  "Fatal": "N",
  "Link": "http://sharkattackfile.net/spreadsheets/pdf_directory/2013.08.11-Royston.pdf",
  "Lat": 32.6552,
  "Lng": -79.9404
},
{
  "_id": {
    "$oid": "64c08d4b96c159958ed56229"
  },
  "": 165,
  "Case Number": "2013.07.30",
  "Date": "  30-Jul-2013",
  "Year": 2013,
  "Country": "USA",
  "Type": "Unprovoked",
  "Location": "Isle of Palms, Charleston County",
  "Activity": "Swimming",
  "Injury": "Foot bitten",
  "Fatal": "N",
  "Link": "http://sharkattackfile.net/spreadsheets/pdf_directory/2013.07.30-Bretz.pdf",
  "Lat": 32.7868,
  "Lng": -79.7948
},
{
  "_id": {
    "$oid": "64c08d4b96c159958ed5622a"
  },
  "": 166,
  "Case Number": "2013.07.29.b",
  "Date": "  29-Jul-2013",
  "Year": 2013,
  "Country": "MEXICO",
  "Type": "Unprovoked",
  "Activity": "Wading",
  "Injury": "Hip bitten",
  "Fatal": "N",
  "Link": "http://sharkattackfile.net/spreadsheets/pdf_directory/2013.07.29.b-Davis.pdf",
  "Lat": 18.8333,
  "Lng": 100.6667
},
{
  "_id": {
    "$oid": "64c08d4b96c159958ed5622b"
  },
  "": 167,
  "Case Number": "2013.07.19",
  "Date": "19-Jul-13",
  "Year": 2013,
  "Country": "USA",
  "Type": "Unprovoked",
  "Location": "Gulf Shores, Baldwin County",
  "Activity": "Walking in surf",
  "Injury": "Lacerations and abrasions to foot and ankle",
  "Fatal": "N",
  "Link": "http://sharkattackfile.net/spreadsheets/pdf_directory/2013.07.19-Havrylkoff.pdf",
  "Lat": 30.246,
  "Lng": -87.7008
},
{
  "_id": {
    "$oid": "64c08d4b96c159958ed5622c"
  },
  "": 168,
  "Case Number": "2013.07.17.R",
  "Date": "Reported 17-Jul-2013",
  "Year": 2013,
  "Country": "USA",
  "Type": "Unprovoked",
  "Location": "Butler Beach, St Augustine,       St. Johns County",
  "Activity": "Swimming ",
  "Injury": "4 cuts to posterior calf",
  "Fatal": "N",
  "Link": "http://sharkattackfile.net/spreadsheets/pdf_directory/2013.07.17-StAugustine.pdf",
  "Lat": 29.7971,
  "Lng": -81.2647
},
{
  "_id": {
    "$oid": "64c08d4b96c159958ed5622d"
  },
  "": 169,
  "Case Number": "2013.06.25.b",
  "Date": "25-Jun-13",
  "Year": 2013,
  "Country": "USA",
  "Type": "Unprovoked",
  "Location": "Jacksonville, Duval County",
  "Activity": "Swimming",
  "Injury": "Lacerations to left foot",
  "Fatal": "N",
  "Link": "http://sharkattackfile.net/spreadsheets/pdf_directory/2013.06.25.b-Malone.pdf",
  "Lat": 30.3322,
  "Lng": -81.6556
},
{
  "_id": {
    "$oid": "64c08d4b96c159958ed5622e"
  },
  "": 170,
  "Case Number": "2013.06.25.a",
  "Date": "25-Jun-13",
  "Year": 2013,
  "Country": "USA",
  "Type": "Unprovoked",
  "Location": "Kiawah Island, Charleston County",
  "Activity": "Swimming",
  "Injury": "Bitten on lower right leg, reported as a minor injury",
  "Fatal": "N",
  "Link": "http://sharkattackfile.net/spreadsheets/pdf_directory/2013.06.25.a-Watson.pdf",
  "Lat": 32.6082,
  "Lng": -80.0848
},
{
  "_id": {
    "$oid": "64c08d4b96c159958ed5622f"
  },
  "": 171,
  "Case Number": "2013.06.17",
  "Date": "17-Jun-13",
  "Year": 2013,
  "Country": "USA",
  "Type": "Unprovoked",
  "Location": "Surfside Beach, Brazoria County",
  "Activity": "Swimming",
  "Injury": "Left leg & hand bitten",
  "Fatal": "N",
  "Link": "http://sharkattackfile.net/spreadsheets/pdf_directory/2013.06.17-Sebesta.pdf",
  "Lat": 33.606,
  "Lng": -78.9731
},
{
  "_id": {
    "$oid": "64c08d4b96c159958ed56230"
  },
  "": 172,
  "Case Number": "2013.06.15",
  "Date": "15-Jun-13",
  "Year": 2013,
  "Country": "USA",
  "Type": "Unprovoked",
  "Location": "Atlantic Beach, Duval County",
  "Activity": "Surfing",
  "Injury": "Lacerations to left ankle",
  "Fatal": "N",
  "Link": "http://sharkattackfile.net/spreadsheets/pdf_directory/2013.06.15-LaFlam.pdf",
  "Lat": 30.3344,
  "Lng": -81.3987
},
{
  "_id": {
    "$oid": "64c08d4b96c159958ed56231"
  },
  "": 173,
  "Case Number": "2013.06.14.R",
  "Date": "Reported 14-Jun-2013",
  "Year": 2013,
  "Country": "USA",
  "Type": "Unprovoked",
  "Location": "Myrtle Beach, Horry County",
  "Activity": "Boogie Boarding",
  "Injury": "Puncture marks to hand",
  "Fatal": "N",
  "Link": "http://sharkattackfile.net/spreadsheets/pdf_directory/2013.06.14.R-Foreman.pdf",
  "Lat": 33.6891,
  "Lng": -78.8867
},
{
  "_id": {
    "$oid": "64c08d4b96c159958ed56232"
  },
  "": 174,
  "Case Number": "2013.05.27.a",
  "Date": "27-May-13",
  "Year": 2013,
  "Country": "USA",
  "Type": "Unprovoked",
  "Location": "Ormond Beach, Volusia County",
  "Activity": "Swimming",
  "Injury": "Right foot bitten",
  "Fatal": "N",
  "Link": "http://sharkattackfile.net/spreadsheets/pdf_directory/2013.05.27.a-Kirkpatrick.pdf",
  "Lat": 29.2858,
  "Lng": -81.0559
},
{
  "_id": {
    "$oid": "64c08d4b96c159958ed56233"
  },
  "": 175,
  "Case Number": "2013.05.04.a",
  "Date": "4-May-13",
  "Year": 2013,
  "Country": "USA",
  "Type": "Unprovoked",
  "Location": "Melbourne Beach, Brevard County",
  "Activity": "Surfing",
  "Injury": "Lacerations to left foot and ankle",
  "Fatal": "N",
  "Link": "http://sharkattackfile.net/spreadsheets/pdf_directory/2013.05.04-Adler.pdf",
  "Lat": 28.0684,
  "Lng": -80.5603
},
{
  "_id": {
    "$oid": "64c08d4b96c159958ed56234"
  },
  "": 176,
  "Case Number": "2013.04.13.b",
  "Date": "13-Apr-13",
  "Year": 2013,
  "Country": "USA",
  "Type": "Unprovoked",
  "Location": "New Smyrna Beach, Volusia County",
  "Activity": "Surfing",
  "Injury": "Minor lacerations to right hand",
  "Fatal": "N",
  "Link": "http://sharkattackfile.net/spreadsheets/pdf_directory/2013.04.13.b-JoshuaWhite.pdf",
  "Lat": 29.0258,
  "Lng": -80.927
},
{
  "_id": {
    "$oid": "64c08d4b96c159958ed56235"
  },
  "": 177,
  "Case Number": "2013.04.04",
  "Date": "4-Apr-13",
  "Year": 2013,
  "Country": "USA",
  "Type": "Unprovoked",
  "Location": "Jensen Beach, Martin County ",
  "Activity": "Swimming",
  "Injury": "Lacerations to hand",
  "Fatal": "N",
  "Link": "http://sharkattackfile.net/spreadsheets/pdf_directory/2013.04.04-JensenBeach.pdf",
  "Lat": 27.2545,
  "Lng": -80.2298
},
{
  "_id": {
    "$oid": "64c08d4b96c159958ed56236"
  },
  "": 178,
  "Case Number": "2012.12.31",
  "Date": "31-Dec-12",
  "Year": 2012,
  "Country": "USA",
  "Type": "Unprovoked",
  "Location": "Jensen Beach, Martin County ",
  "Activity": "Swimming",
  "Injury": "Lower leg or ankle bitten",
  "Fatal": "N",
  "Link": "http://sharkattackfile.net/spreadsheets/pdf_directory/2012.12.31-JensenBeach.pdf",
  "Lat": 27.2545,
  "Lng": -80.2298
},
{
  "_id": {
    "$oid": "64c08d4b96c159958ed56237"
  },
  "": 179,
  "Case Number": "2012.11.30",
  "Date": "30-Nov-12",
  "Year": 2012,
  "Country": "USA",
  "Type": "Unprovoked",
  "Location": "Kihei, Maui",
  "Activity": "Snorkeling",
  "Injury": "Lacerations to thigh & lower left leg",
  "Fatal": "N",
  "Link": "http://sharkattackfile.net/spreadsheets/pdf_directory/2012.11.30-Kennedy.pdf",
  "Lat": 20.785,
  "Lng": -156.4656
},
{
  "_id": {
    "$oid": "64c08d4b96c159958ed56238"
  },
  "": 180,
  "Case Number": "2012.11.19",
  "Date": "19-Nov-12",
  "Year": 2012,
  "Country": "USA",
  "Type": "Unprovoked",
  "Location": "Melbourne Beach, Brevard County",
  "Activity": "Surfing",
  "Injury": "Minor lacerations to left foot & heel",
  "Fatal": "N",
  "Link": "http://sharkattackfile.net/spreadsheets/pdf_directory/2012.11.19-Rittgers.pdf",
  "Lat": 28.0684,
  "Lng": -80.5603
},
{
  "_id": {
    "$oid": "64c08d4b96c159958ed56239"
  },
  "": 181,
  "Case Number": "2012.10.23",
  "Date": "23-Oct-12",
  "Year": 2012,
  "Country": "USA",
  "Type": "Unprovoked",
  "Location": "Surf Beach, Lompoc, Santa Barbara County",
  "Activity": "Surfing",
  "Injury": "FATAL",
  "Fatal": "Y",
  "Link": "http://sharkattackfile.net/spreadsheets/pdf_directory/2012.10.23-Solorio.pdf",
  "Lat": -38.5133,
  "Lng": 145.2997
},
{
  "_id": {
    "$oid": "64c08d4b96c159958ed5623a"
  },
  "": 182,
  "Case Number": "2012.10.19",
  "Date": "19-Oct-12",
  "Year": 2012,
  "Country": "USA",
  "Type": "Unprovoked",
  "Location": "Seaport, Brevard County",
  "Injury": "Left calf bitten",
  "Fatal": "N",
  "Link": "http://sharkattackfile.net/spreadsheets/pdf_directory/2012.10.19-BrevardCounty.pdf",
  "Lat": 42.3502,
  "Lng": -71.0427
},
{
  "_id": {
    "$oid": "64c08d4b96c159958ed5623b"
  },
  "": 183,
  "Case Number": "2012.10.18.b",
  "Date": "18-Oct-12",
  "Year": 2012,
  "Country": "USA",
  "Type": "Unprovoked",
  "Location": "Ponce Inlet, Volusia County",
  "Activity": "Surfing",
  "Injury": "Minor bite to ankle",
  "Fatal": "N",
  "Link": "http://sharkattackfile.net/spreadsheets/pdf_directory/2012.10.18.b-PonceInlet.pdf",
  "Lat": 29.0964,
  "Lng": -80.937
},
{
  "_id": {
    "$oid": "64c08d4b96c159958ed5623c"
  },
  "": 184,
  "Case Number": "2012.10.16",
  "Date": "16-Oct-12",
  "Year": 2012,
  "Country": "USA",
  "Type": "Invalid",
  "Location": "Hobe Sound",
  "Injury": "Laceration to toe",
  "Link": "http://sharkattackfile.net/spreadsheets/pdf_directory/2012.10.16-HobeSound.pdf",
  "Lat": 27.0595,
  "Lng": -80.1364
},
{
  "_id": {
    "$oid": "64c08d4b96c159958ed5623d"
  },
  "": 185,
  "Case Number": "2012.10.07",
  "Date": "10-Oct-12",
  "Year": 2012,
  "Country": "USA",
  "Type": "Unprovoked",
  "Location": "Davenport Landing, Santa Cruz County",
  "Activity": "Windsurfing",
  "Injury": "No ijnury to boardrider, shark struck board breaking the mast",
  "Fatal": "N",
  "Link": "http://sharkattackfile.net/spreadsheets/pdf_directory/2012.10.07-Proppe.pdf",
  "Lat": 37.0245,
  "Lng": -122.2155
},
{
  "_id": {
    "$oid": "64c08d4b96c159958ed5623e"
  },
  "": 186,
  "Case Number": "2012.09.25",
  "Date": "25-Sep-12",
  "Year": 2012,
  "Country": "USA",
  "Type": "Unprovoked",
  "Location": "Melbourne Beach, Brevard County",
  "Activity": "Surfing",
  "Injury": "Lacerations to left forearm",
  "Fatal": "N",
  "Link": "http://sharkattackfile.net/spreadsheets/pdf_directory/2012.09.25-Taylor.pdf",
  "Lat": 28.0684,
  "Lng": -80.5603
},
{
  "_id": {
    "$oid": "64c08d4b96c159958ed5623f"
  },
  "": 187,
  "Case Number": "2012.09.09",
  "Date": "9-Sep-12",
  "Year": 2012,
  "Country": "USA",
  "Type": "Unprovoked",
  "Location": "New Smyrna Beach, Volusia County",
  "Activity": "Surfing",
  "Injury": "Minor injury to elbow",
  "Fatal": "N",
  "Link": "http://sharkattackfile.net/spreadsheets/pdf_directory/2012.09.09-NSB.pdf",
  "Lat": 29.0258,
  "Lng": -80.927
},
{
  "_id": {
    "$oid": "64c08d4b96c159958ed56240"
  },
  "": 188,
  "Case Number": "2012.09.08.a",
  "Date": "8-Sep-12",
  "Year": 2012,
  "Country": "USA",
  "Type": "Unprovoked",
  "Location": "South Beach, Miami-Dade County",
  "Activity": "Swimming",
  "Injury": "Lacerations to right calf",
  "Fatal": "N",
  "Link": "http://sharkattackfile.net/spreadsheets/pdf_directory/2012.09.08.a-SouthBeach.pdf",
  "Lat": 27.5911,
  "Lng": -80.3442
},
{
  "_id": {
    "$oid": "64c08d4b96c159958ed56241"
  },
  "": 189,
  "Case Number": "2012.09.06.b",
  "Date": "6-Sep-12",
  "Year": 2012,
  "Country": "USA",
  "Type": "Unprovoked",
  "Location": "Neptune Beach, Duval County",
  "Activity": "Surfing",
  "Injury": "Right calf bitten",
  "Fatal": "N",
  "Link": "http://sharkattackfile.net/spreadsheets/pdf_directory/2012.09.06.b-Fyfe.pdf",
  "Lat": 30.3119,
  "Lng": -81.3965
},
{
  "_id": {
    "$oid": "64c08d4b96c159958ed56242"
  },
  "": 190,
  "Case Number": "2012.09.06.a",
  "Date": "6-Sep-12",
  "Year": 2012,
  "Country": "USA",
  "Type": "Unprovoked",
  "Location": "St. Augustine Beach, St. John's County",
  "Activity": "Surfing",
  "Injury": "Lacerations to foot",
  "Fatal": "N",
  "Link": "http://sharkattackfile.net/spreadsheets/pdf_directory/2012.09.06.a-Birchall.pdf",
  "Lat": 29.8509,
  "Lng": -81.2717
},
{
  "_id": {
    "$oid": "64c08d4b96c159958ed56243"
  },
  "": 191,
  "Case Number": "2012.09.04",
  "Date": "4-Sep-12",
  "Year": 2012,
  "Country": "USA",
  "Type": "Unprovoked",
  "Location": "Melbourne Beach, Brevard County",
  "Activity": "Surfing",
  "Injury": "Puncture wounds to hand",
  "Fatal": "N",
  "Link": "http://sharkattackfile.net/spreadsheets/pdf_directory/2012.09.04-MelbourneBeach.pdf",
  "Lat": 28.0684,
  "Lng": -80.5603
},
{
  "_id": {
    "$oid": "64c08d4b96c159958ed56244"
  },
  "": 192,
  "Case Number": "2012.09.02.b",
  "Date": "2-Sep-12",
  "Year": 2012,
  "Country": "USA",
  "Type": "Unprovoked",
  "Location": "New Smyrna Beach, Volusia County",
  "Activity": "Boogie boarding",
  "Injury": "Puncture wounds to calf and hand",
  "Fatal": "N",
  "Link": "http://sharkattackfile.net/spreadsheets/pdf_directory/2012.09.02.b-NSB-girl.pdf",
  "Lat": 29.0258,
  "Lng": -80.927
},
{
  "_id": {
    "$oid": "64c08d4b96c159958ed56245"
  },
  "": 193,
  "Case Number": "2012.09.02.a",
  "Date": "2-Sep-12",
  "Year": 2012,
  "Country": "USA",
  "Type": "Unprovoked",
  "Location": "New Smyrna Beach, Volusia County",
  "Activity": "Swimming or boogie boarding",
  "Injury": "Puncture wound to left ankle",
  "Fatal": "N",
  "Link": "http://sharkattackfile.net/spreadsheets/pdf_directory/2012.09.02.a-NSB-Woman.pdf",
  "Lat": 29.0258,
  "Lng": -80.927
},
{
  "_id": {
    "$oid": "64c08d4b96c159958ed56246"
  },
  "": 194,
  "Case Number": "2012.08.15",
  "Date": "15-Aug-12",
  "Year": 2012,
  "Country": "USA",
  "Type": "Unprovoked",
  "Location": "Gulf Shores, Baldwin County",
  "Activity": "Wading or swimming",
  "Injury": "Lacerations to leg",
  "Fatal": "N",
  "Link": "http://sharkattackfile.net/spreadsheets/pdf_directory/2012.08.15-GulfShoresSwimmer.pdf",
  "Lat": 30.246,
  "Lng": -87.7008
},
{
  "_id": {
    "$oid": "64c08d4b96c159958ed56247"
  },
  "": 195,
  "Case Number": "2012.08.09",
  "Date": "8-Aug-12",
  "Year": 2012,
  "Country": "USA",
  "Type": "Unprovoked",
  "Location": "Key Largo",
  "Activity": "Free diving ",
  "Injury": "Lacerations to little finger of left hand",
  "Fatal": "N",
  "Link": "http://sharkattackfile.net/spreadsheets/pdf_directory/2012.08.09-Lowe.pdf",
  "Lat": 25.0865,
  "Lng": -80.4473
},
{
  "_id": {
    "$oid": "64c08d4b96c159958ed56248"
  },
  "": 196,
  "Case Number": "2012.07.19",
  "Date": "19-Jul-12",
  "Year": 2012,
  "Country": "CANADA",
  "Type": "Invalid",
  "Location": "Tofino, Vancouver",
  "Activity": "Surfing",
  "Injury": "Lacerations to 2 fingers, but shark involvement unconfirmed",
  "Link": "http://sharkattackfile.net/spreadsheets/pdf_directory/2012.07.19-Dakers.pdf",
  "Lat": 49.1521,
  "Lng": -125.9032
},
{
  "_id": {
    "$oid": "64c08d4b96c159958ed56249"
  },
  "": 197,
  "Case Number": "2012.07.08",
  "Date": "8-Jul-12",
  "Year": 2012,
  "Country": "USA",
  "Type": "Unprovoked",
  "Location": "North Topsail Beach, Onslow County",
  "Activity": "Swimming",
  "Injury": "Lacerations to right ankle and calf",
  "Fatal": "N",
  "Link": "http://sharkattackfile.net/spreadsheets/pdf_directory/2012.07.08-Fasick.pdf",
  "Lat": 34.4902,
  "Lng": -77.4316
},
{
  "_id": {
    "$oid": "64c08d4b96c159958ed5624a"
  },
  "": 198,
  "Case Number": "2012.07.07.a",
  "Date": "7-Jul-12",
  "Year": 2012,
  "Country": "USA",
  "Type": "Boating",
  "Location": "Pleasure Point, Santa Cruz County",
  "Activity": "Kayaking",
  "Injury": "No injury, kayak bitten",
  "Fatal": "N",
  "Link": "http://sharkattackfile.net/spreadsheets/pdf_directory/2012.07.07.a-SantaCruz.pdf",
  "Lat": -33.9725,
  "Lng": 150.9878
},
{
  "_id": {
    "$oid": "64c08d4b96c159958ed5624b"
  },
  "": 199,
  "Case Number": "2012.06.26.c",
  "Date": "26-Jun-12",
  "Year": 2012,
  "Country": "USA",
  "Type": "Unprovoked",
  "Location": "Juno Beach, Palm Beach County",
  "Activity": "Swimming",
  "Injury": "Thigh bitten",
  "Fatal": "N",
  "Link": "http://sharkattackfile.net/spreadsheets/pdf_directory/2012.06.26.c-Bieber.pdf",
  "Lat": 26.8798,
  "Lng": -80.0534
},
{
  "_id": {
    "$oid": "64c08d4b96c159958ed5624c"
  },
  "": 200,
  "Case Number": "2012.06.26.b",
  "Date": "26-Jun-12",
  "Year": 2012,
  "Country": "USA",
  "Type": "Unprovoked",
  "Location": "New Smyrna Beach, Volusia County",
  "Activity": "Surfing",
  "Injury": "Nip to left foot",
  "Fatal": "N",
  "Link": "http://sharkattackfile.net/spreadsheets/pdf_directory/2012.06.26.b-NewSmyrnaBeach.pdf",
  "Lat": 29.0258,
  "Lng": -80.927
},
{
  "_id": {
    "$oid": "64c08d4b96c159958ed5624d"
  },
  "": 201,
  "Case Number": "2012.06.19",
  "Date": "19-Jun-12",
  "Year": 2012,
  "Country": "USA",
  "Type": "Invalid",
  "Location": "Myrtle Beach, Horry County",
  "Activity": "Standing",
  "Injury": "Laceration to foot. Injured by a stingray, not a shark",
  "Link": "http://sharkattackfile.net/spreadsheets/pdf_directory/2012.06.19-MyrtleBeach.pdf",
  "Lat": 33.6891,
  "Lng": -78.8867
},
{
  "_id": {
    "$oid": "64c08d4b96c159958ed5624e"
  },
  "": 202,
  "Case Number": "2012.06.14.d",
  "Date": "14-Jun-12",
  "Year": 2012,
  "Country": "USA",
  "Type": "Unprovoked",
  "Location": "Myrtle Beach, Horry County",
  "Activity": "Swimming",
  "Injury": "Foot & hand bitten",
  "Fatal": "N",
  "Link": "http://sharkattackfile.net/spreadsheets/pdf_directory/2012.06.14.d-female-MyrtleBeach.pdf",
  "Lat": 33.6891,
  "Lng": -78.8867
},
{
  "_id": {
    "$oid": "64c08d4b96c159958ed5624f"
  },
  "": 203,
  "Case Number": "2012.06.14.c",
  "Date": "14-Jun-12",
  "Year": 2012,
  "Country": "USA",
  "Type": "Unprovoked",
  "Location": "Myrtle Beach, Horry County",
  "Activity": "Swimming",
  "Injury": "Minor injury",
  "Fatal": "N",
  "Link": "http://sharkattackfile.net/spreadsheets/pdf_directory/2012.06.14.c-MyrtleBeach.pdf",
  "Lat": 33.6891,
  "Lng": -78.8867
},
{
  "_id": {
    "$oid": "64c08d4b96c159958ed56250"
  },
  "": 204,
  "Case Number": "2012.06.14.b",
  "Date": "14-Jun-12",
  "Year": 2012,
  "Country": "USA",
  "Type": "Unprovoked",
  "Location": "Myrtle Beach, Horry County",
  "Activity": "Swimming",
  "Injury": "Calf bitten",
  "Fatal": "N",
  "Link": "http://sharkattackfile.net/spreadsheets/pdf_directory/2012.06.14.b-male-MyrtleBeach.pdf",
  "Lat": 33.6891,
  "Lng": -78.8867
},
{
  "_id": {
    "$oid": "64c08d4b96c159958ed56251"
  },
  "": 205,
  "Case Number": "2012.06.14.a",
  "Date": "14-Jun-12",
  "Year": 2012,
  "Country": "USA",
  "Type": "Unprovoked",
  "Location": "Myrtle Beach, Horry County",
  "Activity": "Swimming",
  "Injury": "Laceration to right foot",
  "Fatal": "N",
  "Link": "http://sharkattackfile.net/spreadsheets/pdf_directory/2012.06.14.a-Garosalo.pdf",
  "Lat": 33.6891,
  "Lng": -78.8867
},
{
  "_id": {
    "$oid": "64c08d4b96c159958ed56252"
  },
  "": 206,
  "Case Number": "2012.06.02.b",
  "Date": "2-Jun-12",
  "Year": 2012,
  "Country": "USA",
  "Type": "Unprovoked",
  "Location": "Bethune Beach, Volusia County",
  "Activity": "Surfing",
  "Injury": "Laceration to thigh",
  "Fatal": "N",
  "Link": "http://sharkattackfile.net/spreadsheets/pdf_directory/2012.06.02.b-DelRosso.pdf",
  "Lat": 28.9492,
  "Lng": -80.8378
},
{
  "_id": {
    "$oid": "64c08d4b96c159958ed56253"
  },
  "": 207,
  "Case Number": "2012.06.02.a",
  "Date": "2-Jun-12",
  "Year": 2012,
  "Country": "USA",
  "Type": "Unprovoked",
  "Location": "Myrtle Beach, Horry County",
  "Activity": "Boogie Boarding",
  "Injury": "Severe laceration to foot",
  "Fatal": "N",
  "Link": "http://sharkattackfile.net/spreadsheets/pdf_directory/2012.06.02.a-Maczynski.pdf",
  "Lat": 33.6891,
  "Lng": -78.8867
},
{
  "_id": {
    "$oid": "64c08d4b96c159958ed56254"
  },
  "": 208,
  "Case Number": "2012.05.31",
  "Date": "31-May-12",
  "Year": 2012,
  "Country": "USA",
  "Type": "Unprovoked",
  "Location": "Avon, Hatteras Island, Outer Banks, Dare County",
  "Activity": "Wading",
  "Injury": "Foot bitten",
  "Fatal": "N",
  "Link": "http://sharkattackfile.net/spreadsheets/pdf_directory/2012.05.31-Konkler.pdf",
  "Lat": 41.4517,
  "Lng": -82.0351
},
{
  "_id": {
    "$oid": "64c08d4b96c159958ed56255"
  },
  "": 209,
  "Case Number": "2012.05.23",
  "Date": "23-May-12",
  "Year": 2012,
  "Country": "USA",
  "Type": "Unprovoked",
  "Location": "Jacksonville, Duval County",
  "Activity": "Surfing",
  "Injury": "Lacerations to foot",
  "Fatal": "N",
  "Link": "http://sharkattackfile.net/spreadsheets/pdf_directory/2012.05.23-Renfro.pdf",
  "Lat": 30.3322,
  "Lng": -81.6556
},
{
  "_id": {
    "$oid": "64c08d4b96c159958ed56256"
  },
  "": 210,
  "Case Number": "2012.05.09",
  "Date": "9-May-12",
  "Year": 2012,
  "Country": "USA",
  "Type": "Unprovoked",
  "Location": "Vero Beach, Indian River County",
  "Activity": "Swimming",
  "Injury": "Upper left thigh bitten",
  "Fatal": "N",
  "Link": "http://sharkattackfile.net/spreadsheets/pdf_directory/2012.05.09-Stei.pdf",
  "Lat": 27.6386,
  "Lng": -80.3973
},
{
  "_id": {
    "$oid": "64c08d4b96c159958ed56257"
  },
  "": 211,
  "Case Number": "2012.04.19.b",
  "Date": "19-Apr-12",
  "Year": 2012,
  "Country": "USA",
  "Type": "Unprovoked",
  "Location": "Indialantic, Brevard County",
  "Activity": "Surfing",
  "Injury": "Lacerations to hand",
  "Fatal": "N",
  "Link": "http://sharkattackfile.net/spreadsheets/pdf_directory/2012.04.19.b-Ellingham.pdf",
  "Lat": 28.0895,
  "Lng": -80.5656
},
{
  "_id": {
    "$oid": "64c08d4b96c159958ed56258"
  },
  "": 212,
  "Case Number": "2012.03.24",
  "Date": "24-Mar-12",
  "Year": 2012,
  "Country": "USA",
  "Type": "Unprovoked",
  "Location": "New Smyrna Beach, Volusia County",
  "Activity": "Surfing",
  "Injury": "Minor lacerations to foot",
  "Fatal": "N",
  "Link": "http://sharkattackfile.net/spreadsheets/pdf_directory/2012.03.24-Coppola.pdf",
  "Lat": 29.0258,
  "Lng": -80.927
},
{
  "_id": {
    "$oid": "64c08d4b96c159958ed56259"
  },
  "": 213,
  "Case Number": "2012.03.15",
  "Date": "15-Mar-12",
  "Year": 2012,
  "Country": "USA",
  "Type": "Unprovoked",
  "Location": "Jensen Beach, Martin County ",
  "Activity": "Surfing",
  "Injury": "Left forearm bitten",
  "Fatal": "N",
  "Link": "http://sharkattackfile.net/spreadsheets/pdf_directory/2012.03.15-Wacha.pdf",
  "Lat": 27.2545,
  "Lng": -80.2298
},
{
  "_id": {
    "$oid": "64c08d4b96c159958ed5625a"
  },
  "": 214,
  "Case Number": "2012.03.14.b",
  "Date": "14-Mar-12",
  "Year": 2012,
  "Country": "USA",
  "Type": "Unprovoked",
  "Location": "New Smyrna Beach, Volusia County",
  "Activity": "Surfing",
  "Injury": "Bitten on ankle",
  "Fatal": "N",
  "Link": "http://sharkattackfile.net/spreadsheets/pdf_directory/2012.03.14.b-Levy.pdf",
  "Lat": 29.0258,
  "Lng": -80.927
},
{
  "_id": {
    "$oid": "64c08d4b96c159958ed5625b"
  },
  "": 215,
  "Case Number": "2012.03.14.a",
  "Date": "14-Mar-12",
  "Year": 2012,
  "Country": "USA",
  "Type": "Unprovoked",
  "Location": "New Smyrna Beach, Volusia County",
  "Activity": "Surfing",
  "Injury": "Bitten on calf",
  "Fatal": "N",
  "Link": "http://sharkattackfile.net/spreadsheets/pdf_directory/2012.03.14.a-Romano.pdf",
  "Lat": 29.0258,
  "Lng": -80.927
},
{
  "_id": {
    "$oid": "64c08d4b96c159958ed5625c"
  },
  "": 216,
  "Case Number": "2012.01.27",
  "Date": "27-Jan-12",
  "Year": 2012,
  "Country": "USA",
  "Type": "Unprovoked",
  "Location": "Lanai",
  "Activity": "Snorkeling",
  "Injury": "No injury, shark bit swim fin",
  "Fatal": "N",
  "Link": "http://sharkattackfile.net/spreadsheets/pdf_directory/2012.01.27-NV-Graden.pdf",
  "Lat": 7.2802,
  "Lng": 8.472
},
{
  "_id": {
    "$oid": "64c08d4b96c159958ed5625d"
  },
  "": 217,
  "Case Number": "2012.01.13",
  "Date": "13-Jan-12",
  "Year": 2012,
  "Country": "USA",
  "Type": "Unprovoked",
  "Location": "Lincoln City, Lincoln County",
  "Activity": "Surfing",
  "Injury": "No injury, surfboard damaged",
  "Fatal": "N",
  "Link": "http://sharkattackfile.net/spreadsheets/pdf_directory/2012.01.13-Harnack.pdf",
  "Lat": 44.9582,
  "Lng": -124.0179
},
{
  "_id": {
    "$oid": "64c08d4b96c159958ed5625e"
  },
  "": 218,
  "Case Number": "2011.12.31",
  "Date": "31-Dec-11",
  "Year": 2011,
  "Country": "USA",
  "Type": "Unprovoked",
  "Location": "Jupiter, Palm Beach County",
  "Injury": "Hand injured",
  "Fatal": "N",
  "Link": "http://sharkattackfile.net/spreadsheets/pdf_directory/2011.12.31-Jupiter.pdf",
  "Lat": 26.9342,
  "Lng": -80.0942
},
{
  "_id": {
    "$oid": "64c08d4b96c159958ed5625f"
  },
  "": 219,
  "Case Number": "2011.12.23",
  "Date": "23-Dec-11",
  "Year": 2011,
  "Country": "USA",
  "Type": "Unprovoked",
  "Location": "New Smyrna Beach",
  "Activity": "Surfing",
  "Injury": "Laceration to ankle",
  "Fatal": "N",
  "Link": "http://sharkattackfile.net/spreadsheets/pdf_directory/2011.12.23-Futato.pdf",
  "Lat": 29.0258,
  "Lng": -80.927
},
{
  "_id": {
    "$oid": "64c08d4b96c159958ed56260"
  },
  "": 220,
  "Case Number": "2011.10.20",
  "Date": "20-Oct-11",
  "Year": 2011,
  "Country": "USA",
  "Type": "Unprovoked",
  "Location": "Newport, Lincoln County",
  "Activity": "Surfing",
  "Injury": "No injury, shark bit surfboard",
  "Fatal": "N",
  "Link": "http://sharkattackfile.net/spreadsheets/pdf_directory/2011.10.20-Gumm.pdf",
  "Lat": 51.5877,
  "Lng": -2.9984
},
{
  "_id": {
    "$oid": "64c08d4b96c159958ed56261"
  },
  "": 221,
  "Case Number": "2011.10.11",
  "Date": "11-Oct-11",
  "Year": 2011,
  "Country": "USA",
  "Type": "Unprovoked",
  "Location": "Cape Canaveral",
  "Activity": "Surfing",
  "Injury": "Foot bitten",
  "Fatal": "N",
  "Link": "http://sharkattackfile.net/spreadsheets/pdf_directory/2011.10.11-Riley.pdf",
  "Lat": 28.4058,
  "Lng": -80.6048
},
{
  "_id": {
    "$oid": "64c08d4b96c159958ed56262"
  },
  "": 222,
  "Case Number": "2011.10.10",
  "Date": "10-Oct-11",
  "Year": 2011,
  "Country": "USA",
  "Type": "Unprovoked",
  "Location": "Seaside",
  "Activity": "Surfing",
  "Injury": "No injury",
  "Fatal": "N",
  "Link": "http://sharkattackfile.net/spreadsheets/pdf_directory/2011.10.10-Niblack.pdf",
  "Lat": 36.6111,
  "Lng": -121.8516
},
{
  "_id": {
    "$oid": "64c08d4b96c159958ed56263"
  },
  "": 223,
  "Case Number": "2011.10.01",
  "Date": "1-Oct-11",
  "Year": 2011,
  "Country": "USA",
  "Type": "Unprovoked",
  "Location": "Gulf Shores, Baldwin County",
  "Injury": "Lacerations to right wrist and middle finger",
  "Fatal": "N",
  "Link": "http://sharkattackfile.net/spreadsheets/pdf_directory/2011.10.01-Meade.pdf",
  "Lat": 30.246,
  "Lng": -87.7008
},
{
  "_id": {
    "$oid": "64c08d4b96c159958ed56264"
  },
  "": 224,
  "Case Number": "2011.09.24.a",
  "Date": "24-Sep-11",
  "Year": 2011,
  "Country": "USA",
  "Type": "Unprovoked",
  "Location": "North Myrtle Beach, Horry County",
  "Activity": "Jumping in the waves",
  "Injury": "Laceration to left thigh",
  "Fatal": "N",
  "Link": "http://sharkattackfile.net/spreadsheets/pdf_directory/2011.09.24.a-O'Hara.pdf",
  "Lat": 33.816,
  "Lng": -78.68
},
{
  "_id": {
    "$oid": "64c08d4b96c159958ed56265"
  },
  "": 225,
  "Case Number": "2011.09.16",
  "Date": "16-Sep-11",
  "Year": 2011,
  "Country": "USA",
  "Type": "Unprovoked",
  "Location": "New Smyrna Beach",
  "Activity": "Surfing",
  "Injury": "Lacerations to arm",
  "Fatal": "N",
  "Link": "http://sharkattackfile.net/spreadsheets/pdf_directory/2011.09.16-Jorgensen.pdf",
  "Lat": 29.0258,
  "Lng": -80.927
},
{
  "_id": {
    "$oid": "64c08d4b96c159958ed56266"
  },
  "": 226,
  "Case Number": "2011.09.02",
  "Date": "2-Sep-11",
  "Year": 2011,
  "Country": "USA",
  "Type": "Unprovoked",
  "Location": "New Smyrna Beach, Volusia County",
  "Activity": "Surfing",
  "Injury": "Lacerations to ankle & foot",
  "Fatal": "N",
  "Link": "http://sharkattackfile.net/spreadsheets/pdf_directory/2011.09.02-True.pdf",
  "Lat": 29.0258,
  "Lng": -80.927
},
{
  "_id": {
    "$oid": "64c08d4b96c159958ed56267"
  },